"locationID","location_name","locLat","locLon","country"
l1,Zurich University,47.374,8.551,CH
l10,Yoxford,52.266,1.511,GB
l100,Wooler,55.547,-2.012,GB
l1000,"Thiruvananthapuram, India",8.524,76.937,IN
l1001,Thirsk,54.234,-1.341,GB
l1002,"Thetford, Norfolk",52.413,0.752,GB
l1003,Thetford,52.413,0.752,GB
l1004,"Thessaloniki, Greece",40.64,22.944,GR
l1005,Therapis,55.859,-4.255,GB
l1006,"Theological Seminary, Chicago",41.786,-87.591,US
l1007,Theological Hall of Associate Synod,44.226,-76.494,CA
l1008,"Theological College, Stellenbosch",-33.94,18.847,ZA
l1009,"Theological college, Montauban, France",44.022,1.353,FR
l101,Woodwick,55.656,-4.684,GB
l1010,"Theological College, Bala, North Wales",52.91,-3.602,GB
l1011,Theological College,53.416,-2.242,GB
l1012,"Theale, Reading",51.437,-1.071,GB
l1013,"The White Hart Inn, Greenock",55.948,-3.197,GB
l1014,The Star,54.867,-4.08,GB
l1015,"the Society of Chartered Accountants, Edinburgh",55.945,-3.225,GB
l1016,The Royal and Ancient Golf Club of St Andrews,56.344,-2.802,GB
l1017,"the Provincial Court of Appeal, Northern division",51.514,-0.113,GB
l1018,"The Priory, St Andrews",56.304,-2.815,GB
l1019,"the powder magazines, Marchwood, Southampton",50.892,-1.448,GB
l102,Woodville,51.491,-3.181,GB
l1020,"the physic garden, Jacobswells, Clifton, Bristol",51.455,-2.59,GB
l1021,"The Parsonage, Lydgate, New Mill, Huddersfield",53.579,-1.761,GB
l1022,The Netherlands,52.133,5.291,NL
l1023,the Medical Society of London,51.518,-0.145,GB
l1024,"The Manse, Raloo, Larne Co. Antrim",54.801,-5.858,GB
l1025,"The Lodge, Hillingdon",51.552,-0.451,GB
l1026,the Literary and philosophical society of Manchester,53.482,-2.248,GB
l1027,the Leader,53.045,-2.992,GB
l1028,the Hebrides,57.76,-7.019,GB
l1029,"The Hall School, Sunderland",54.895,-1.438,GB
l103,"Woodstock, Oxfordshire",51.847,-1.354,GB
l1030,the Hague,52.07,4.301,NL
l1031,The Hague,52.07,4.301,NL
l1032,"The Grove, Hackney",51.544,-0.056,GB
l1033,"The Green, Ossett",53.673,-1.577,GB
l1034,"the Good Shepherd, Murrayfield, Edinburgh",55.947,-3.237,GB
l1035,The Friends Retreat,55.651,-3.19,GB
l1036,The Dutch Republic,53.227,6.552,NL
l1037,the Convict Hulks in Portsmouth Harbour,51.502,-0.092,GB
l1038,"the College, Crieff",56.404,-3.462,GB
l1039,the Bank of England,51.514,-0.088,GB
l104,"Woodstock, Oxford",51.847,-1.354,GB
l1040,the Bahamas,25.034,-77.396,BS
l1041,the Age,51.275,1.34,GB
l1042,"Thane, India",19.218,72.978,IN
l1043,Thames Ditton,51.39,-0.339,GB
l1044,Thames,51.574,-0.61,GB
l1045,"Thame, Oxfordshire",51.747,-0.974,GB
l1046,Thame,51.747,-0.974,GB
l1047,Texas University,30.285,-97.734,US
l1048,Tewkesbury,51.992,-2.158,GB
l1049,Teviothead,55.338,-2.939,GB
l105,"Woodside, Aberdeen",57.17,-2.123,GB
l1050,Terrington St John,52.706,0.281,GB
l1051,"Tenterden, Kent",51.069,0.689,GB
l1052,Tenby,51.673,-4.704,GB
l1053,"Tenbury, Worcs.",52.308,-2.596,GB
l1054,"Tenbury, Worcestershire",52.308,-2.596,GB
l1055,Temuka Road Board,-44.245,171.278,NZ
l1056,"Temple, Midlothian",55.816,-3.094,GB
l1057,"Temple Row, Birmingham",52.481,-1.898,GB
l1058,Temple Patrick presbytery,54.7,-6.044,GB
l1059,Temple Patrick,54.704,-6.092,GB
l106,Woodside,50.393,-4.054,GB
l1060,Temple,55.817,-3.094,GB
l1061,Teme,52.297,-2.735,GB
l1062,"Tembuland, South Africa",-30.559,22.938,ZA
l1063,"Teignmouth, Devon",50.547,-3.497,GB
l1064,Teignmouth,50.547,-3.497,GB
l1065,Tehran,35.689,51.389,IR
l1066,Teheran,35.689,51.389,IR
l1067,Teddington,51.427,-0.331,GB
l1068,"Technical Institute, Shanghai",31.215,121.403,CN
l1069,"Technical College, Kingstown, Dublin",53.281,-6.152,IE
l107,Woodrow,51.658,-0.652,GB
l1070,Tealing,56.534,-2.957,GB
l1071,Tealby,53.401,-0.264,GB
l1072,Tayport,56.448,-2.881,GB
l1073,"Taylor’s Row, St Johns St., London",51.517,-0.112,GB
l1074,"Tay St. Ladies Institution, Dundee",56.473,-2.962,GB
l1075,Tay St. Academy,55.874,-4.057,GB
l1076,"Tay Square Seminaries, Dundee",56.458,-2.976,GB
l1077,Tay Ferries,56.453,-2.949,GB
l1078,"Tavistock, Devon",50.551,-4.142,GB
l1079,Tavistock,50.551,-4.142,GB
l108,"Woodley, Chester",53.424,-2.105,GB
l1080,"Taunton, Somerset",51.015,-3.107,GB
l1081,Taunton,51.015,-3.107,GB
l1082,Taung,-27.552,24.766,ZA
l1083,"Tatterset, Norfolk",52.834,0.75,GB
l1084,Tatham Fells,54.08,-2.533,GB
l1085,Tasmania,-41.455,145.971,AU
l1086,"Tascosa, Texas, USA",35.511,-102.251,US
l1087,"Tarvit, Fife",56.317,-3.001,GB
l1088,"Tarvit Park, Cupar",56.317,-3.001,GB
l1089,Tarvit Mill,56.298,-3.031,GB
l109,"Woodlands, Hants.",50.903,-1.544,GB
l1090,Tarvit House,56.295,-3.005,GB
l1091,Tarves,57.371,-2.221,GB
l1092,Tarland,57.128,-2.855,GB
l1093,"Tarbolton, Ayrshire",55.512,-4.488,GB
l1094,Tarbolton,55.512,-4.488,GB
l1095,Tarbet,56.204,-4.713,GB
l1096,"Tarbes, France",43.233,0.078,FR
l1097,"Tarbert, Harris",57.898,-6.807,GB
l1098,Tarbert,55.863,-5.416,GB
l1099,Taradale,-39.537,176.849,NZ
l11,"Youghal, Ireland",51.954,-7.847,IE
l110,"Woodlands, Hampshire",50.903,-1.544,GB
l1100,"Tapton Hill Church, Sheffield",53.377,-1.515,GB
l1101,"Tanunda, Australia",-34.52,138.963,AU
l1102,Tannadice,56.475,-2.969,GB
l1103,Tangier,35.759,-5.834,MA
l1104,"Tanfield, Durham",54.894,-1.711,GB
l1105,Taney,36.658,-93.018,US
l1106,"Tandragee, County Armagh",54.356,-6.415,GB
l1107,"Tandragee, Co. Armagh",54.356,-6.415,GB
l1108,Tanderagee,54.356,-6.415,GB
l1109,"Tananarive, Madagascar",-18.879,47.508,MG
l111,"Woodford, Essex",51.604,0.033,GB
l1110,"Tamworth, New South Wales",-31.093,150.932,AU
l1111,"Tamworth, N.S.W.",-31.093,150.932,AU
l1112,Tamworth,52.634,-1.691,GB
l1113,Talybont,52.485,-3.986,GB
l1114,"Talbot Road, London",51.517,-0.199,GB
l1115,"Talbot Rd., London",51.517,-0.199,GB
l1116,Takaka Mission,-40.854,172.806,NZ
l1117,Taipeng,22.23,114.116,HK
l1118,"Tain, UK",57.812,-4.055,GB
l1119,Tain U.F. presbytery,57.812,-4.055,GB
l112,Woodford,51.604,0.033,GB
l1120,Tain presbytery,57.759,-3.903,GB
l1121,Tain,57.812,-4.055,GB
l1122,"Tahiti, French Polynesia",-17.651,-149.426,PF
l1123,Tadcaster,53.884,-1.261,GB
l1124,Tabusintac,47.327,-65.011,CA
l1125,"Tabriz, Iran",38.096,46.274,IR
l1126,"Tabernacle, Moorfields",51.521,-0.135,GB
l1127,T.C.D.,53.344,-6.255,IE
l1128,Syrian Society for the education of Arab youth,34.802,38.997,SY
l1129,Syria,34.802,38.997,SY
l113,"Woodbury, Exeter",50.677,-3.399,GB
l1130,Sypsies,56.263,-2.642,GB
l1131,Synod of the Presbyterian Church of England,55.861,-4.252,GB
l1132,Synod of New South Wales,51.492,-3.152,GB
l1133,Synod A Wiseman’s ferry,-33.382,150.985,AU
l1134,Symington (Biggar),55.599,-3.595,GB
l1135,Symington,55.551,-4.568,GB
l1136,"Sylhet, Bangladesh",24.895,91.869,BD
l1137,"Sydney, New South Wales, Australia",-33.869,151.209,AU
l1138,"Sydney, New South Wales",-33.869,151.209,AU
l1139,"Sydney, N.S.W.",-33.869,151.209,AU
l114,Woodburn Laundry,56.335,-2.785,GB
l1140,"Sydney, Australia",-33.869,151.209,AU
l1141,"Sydney,  N.S.W.",-33.869,151.209,AU
l1142,Sydney University,53.403,-2.964,GB
l1143,Sydney Hospital,-33.868,151.213,AU
l1144,Sydney College,-33.87,151.206,AU
l1145,Sydney,-33.869,151.209,AU
l1146,"Sydenham, London",51.425,-0.059,GB
l1147,"Sydenham, Kent",51.425,-0.059,GB
l1148,"Sydenham College, Birmingham",52.486,-1.89,GB
l1149,Sydenham College,18.935,72.826,IN
l115,"Woodbridge, New Jersey",40.558,-74.285,US
l1150,Sydenham,51.425,-0.059,GB
l1151,Switzerland,46.818,8.228,CH
l1152,Swinton,56,-3.788,GB
l1153,"Swinnie, Jedburgh",55.442,-2.59,GB
l1154,"Swinefleet, Yorkshire",53.691,-0.833,GB
l1155,Sweetwater,59.421,17.859,SE
l1156,Sweden,60.128,18.644,SE
l1157,"Swatow, China",23.354,116.682,CN
l1158,"Swanwick, Dorset",50.886,-1.268,GB
l1159,"Swansea, UK",51.621,-3.944,GB
l116,Woodbridge,52.095,1.313,GB
l1160,Swansea Infirmary,51.621,-3.944,GB
l1161,Swansea,51.621,-3.944,GB
l1162,"Swanley Agricultural College, Kent",51.397,0.171,GB
l1163,Swanley,51.397,0.177,GB
l1164,Swanland,53.738,-0.493,GB
l1165,Swanage,50.608,-1.961,GB
l1166,"Swallowgate, St Andrews",56.342,-2.795,GB
l1167,"Swallow Street, London",51.509,-0.137,GB
l1168,"Swafield, Lincolnshire",53.362,0.094,GB
l1169,"Swaffam, Norfolk",52.647,0.687,GB
l117,"Wood Dalling, Norfolk",52.799,1.099,GB
l1170,Swaffam,52.647,0.687,GB
l1171,Swadlincote,52.771,-1.555,GB
l1172,"Sutton, Surrey",51.361,-0.194,GB
l1173,"Sutton-Valence, Staplehurst, Kent",51.213,0.595,GB
l1174,Sutton St Mary,52.784,0.122,GB
l1175,"Sutton in Holderness, Yorkshire",53.78,-0.301,GB
l1176,"Sutton in Ashfield, Notts.",53.127,-1.263,GB
l1177,"Sutton in Ashfield, Nottinghamshire",53.127,-1.263,GB
l1178,Sutton Forrest,-34.567,150.317,AU
l1179,Sutton Coldfield,52.57,-1.824,GB
l118,Wooburn,51.581,-0.693,GB
l1180,"Suttan, Howth, County Dublin",53.379,-6.057,IE
l1181,"Suttan, Howth, Co. Dublin",53.379,-6.057,IE
l1182,"Sutherland, UK",58.561,-3.766,GB
l1183,"Sutherland Avenue, London",51.525,-0.188,GB
l1184,Sutherland,41.157,-101.127,US
l1185,Sussex hospital,50.819,-0.118,GB
l1186,Sussex County Asylum,50.889,0.269,GB
l1187,Sussex Cottage hospital,50.831,-0.115,GB
l1188,Sussex,53.321,-3.493,GB
l1189,"surveyor’s Office, Royal Asylum, Edinburgh",55.927,-3.214,GB
l119,Wolverhampton Dispensary,52.566,-2.076,GB
l1190,"Surrey, Kent",51.203,0.051,GB
l1191,"Surrey Hills, Victoria",-37.83,145.106,AU
l1192,Surrey County Lunatic Asylum,51.437,-0.17,GB
l1193,Surrey County Asylum,51.437,-0.17,GB
l1194,Surrey,51.315,-0.56,GB
l1195,Surinam,3.919,-56.028,SR
l1196,"Surgeons’ Hall, London",51.518,-0.095,GB
l1197,"Surgeons’ Hall, Edinburgh",55.947,-3.185,GB
l1198,"Surgeons Hall, Edinburgh",55.947,-3.185,GB
l1199,Surgeons Hall,55.947,-3.185,GB
l12,Youghal,51.954,-7.847,IE
l120,Wolverhampton and Staffordshire General infirmary,52.6,-2.095,GB
l1200,"Surgeon’s Hall, Edinburgh",55.947,-3.185,GB
l1201,Surgeon’s Hall,55.947,-3.185,GB
l1202,surgeon’s Hall,55.947,-3.185,GB
l1203,"Surgeon's hall, Edinburgh",55.947,-3.185,GB
l1204,surgeon,53.59,-2.713,GB
l1205,"Surbiton Hill, Surrey",51.397,-0.299,GB
l1206,Surbiton,51.394,-0.303,GB
l1207,"Surat, India",21.17,72.831,IN
l1208,Surat,21.17,72.831,IN
l1209,"Supreme Court, Madras",13.087,80.288,IN
l121,Wolverhampton,52.587,-2.129,GB
l1210,"Supreme Court, Chennai, India",13.087,80.288,IN
l1211,"Supreme Court, Cape Colony",-33.925,18.418,ZA
l1212,"Supreme Court, Bengal",51.5,-0.128,GB
l1213,Supreme Court of Victoria,-37.813,144.959,AU
l1214,Supreme Court Mumbai,18.931,72.83,IN
l1215,Supreme Court Bombay,18.931,72.83,IN
l1216,Supreme Court,51.5,-0.128,GB
l1217,Supply Pitt St.,-33.872,151.208,AU
l1218,"Sundon, Beds.",51.941,-0.473,GB
l1219,"Sundon, Bedfordshire",51.941,-0.473,GB
l122,"Wolston, Coventry",52.374,-1.398,GB
l1220,Sunderland Synagogue,55.001,-1.621,GB
l1221,Sunderland Infirmary,54.903,-1.409,GB
l1222,Sunderland English Presbyterian Church,54.907,-1.384,GB
l1223,Sunderland,54.907,-1.384,GB
l1224,"Sunbury, Middlesex",51.419,-0.419,GB
l1225,"Sun Fire Insurance, Edinburgh",55.953,-3.188,GB
l1226,"Summerhill, County Meath",53.481,-6.733,IE
l1227,"Summerhill, Co. Meath",53.481,-6.733,IE
l1228,"Sultanpur, Varanasi, Uttar Pradesh, India",25.264,83.04,IN
l1229,"Sullom Congregational Church, Shetland",60.442,-1.356,GB
l123,Wolstanton,53.03,-2.216,GB
l1230,"Suffolk Place, London",51.508,-0.131,GB
l1231,Suffolk General hospital,52.232,0.709,GB
l1232,Suffolk General Hospital,52.232,0.709,GB
l1233,Suffolk,52.187,0.971,GB
l1234,"Suez, Egypt",29.967,32.55,EG
l1235,"Sudder Court, Calcutta",22.558,88.353,IN
l1236,"Sudbury, Derbyshire",52.886,-1.762,GB
l1237,Sudbury,52.041,0.727,GB
l1238,Sudan C.S.,12.863,30.218,SD
l1239,"subscription school, Kettle",56.26,-3.118,GB
l124,"Wokingham, Berkshire",51.41,-0.834,GB
l1240,"Subscription School, Broughty Ferry",56.471,-2.88,GB
l1241,"Subscription school, Balmullo",56.378,-2.929,GB
l1242,"Subscription School, Balbeggie",56.45,-3.348,GB
l1243,Subscription School Errol,56.394,-3.21,GB
l1244,Subiaco,-31.949,115.827,AU
l1245,"Suava, Fiji",-18.125,178.45,FJ
l1246,Stuttgart,48.776,9.183,DE
l1247,Stuartfield,57.503,-2.045,GB
l1248,"Struan and St George’s, Edinburgh",55.95,-3.233,GB
l1249,Struan,56.763,-3.969,GB
l125,"Wokingham, Berks.",51.41,-0.834,GB
l1250,Strowan,-43.51,172.607,NZ
l1251,"Stroudwater, Gloucs.",51.78,-2.353,GB
l1252,"Stroudwater, Gloucestershire",51.78,-2.353,GB
l1253,"Stroud, Gloucs.",51.746,-2.218,GB
l1254,"Stroud, Gloucestershire",51.746,-2.218,GB
l1255,Stroud,51.746,-2.218,GB
l1256,Strood,51.393,0.475,GB
l1257,Strontian,56.695,-5.571,GB
l1258,Stronsay,59.107,-2.6,GB
l1259,Stromness,58.966,-3.296,GB
l126,Wokingham,51.41,-0.834,GB
l1260,Strichen House,57.576,-2.109,GB
l1261,Strichen,57.59,-2.096,GB
l1262,Stretford Lancashire,53.457,-2.288,GB
l1263,"Stretford Chapelry, Lancaster",53.447,-2.309,GB
l1264,"Strete, Dartmouth, Devon",50.31,-3.63,GB
l1265,"Streatley, Bedfordshire",51.944,-0.442,GB
l1266,Streatley,51.523,-1.149,GB
l1267,"Streatham, London",51.428,-0.124,GB
l1268,Stravithie Mill,56.291,-2.759,GB
l1269,Stravithie,56.294,-2.752,GB
l127,"Woking, Surrey",51.317,-0.56,GB
l1270,"Stratton, Hants.",51.161,-1.244,GB
l1271,"Stratton, Hampshire",51.157,-1.224,GB
l1272,Strathy,58.558,-3.993,GB
l1273,Strathtay Mission,56.663,-3.776,GB
l1274,Strathtay,56.663,-3.776,GB
l1275,Strathpeffer,57.585,-4.54,GB
l1276,"Strathore, Fife",56.162,-3.184,GB
l1277,Strathnairn,57.373,-4.192,GB
l1278,Strathmiglo,56.278,-3.268,GB
l1279,Strathmartine,56.504,-3.002,GB
l128,"Woburn, Beds.",51.988,-0.621,GB
l1280,Strathlachlan,56.109,-5.195,GB
l1281,Strathkinness,56.334,-2.877,GB
l1282,Strathgarry,56.704,-3.737,GB
l1283,Strathfillan,56.425,-4.67,GB
l1284,Strathdon,57.199,-3.075,GB
l1285,Strathbogie presbytery,57.446,-2.788,GB
l1286,Strathblane,55.985,-4.306,GB
l1287,Strathaven East,55.676,-4.064,GB
l1288,"Strath, Kinross",56.277,-3.273,GB
l1289,Strath,55.862,-4.242,GB
l129,"Woburn, Bedfordshire",51.988,-0.621,GB
l1290,"Stratford, Manchester",53.447,-2.309,GB
l1291,"Stratford, Essex",51.55,-0.003,GB
l1292,Stratford upon Avon,52.192,-1.708,GB
l1293,"Stratford on Avon, UK",52.192,-1.708,GB
l1294,Stratford on Avon,52.192,-1.708,GB
l1295,Stratford Green,52.441,-1.849,GB
l1296,Stratford,51.55,-0.003,GB
l1297,Strata Florida,52.275,-3.839,GB
l1298,Strasburg,48.573,7.752,FR
l1299,Strasbourg,48.573,7.752,FR
l13,"Yorktown, Virginia",37.239,-76.51,US
l130,"Wivelscombe, Somerset",51.044,-3.314,GB
l1300,Stranraer presbytery,54.905,-5.034,GB
l1301,Stranraer Academy,54.904,-5.019,GB
l1302,Straloch,56.758,-3.572,GB
l1303,"Straits Settlements, Singapore",1.389,103.978,MY
l1304,Straiton,55.312,-4.554,GB
l1305,"Straithwaite, Yorkshire",53.618,-1.881,GB
l1306,"Strageath, Muthill",56.331,-3.833,GB
l1307,Strachur,56.167,-5.068,GB
l1308,"Strachan, Aberdeenshire",57.02,-2.541,GB
l1309,Strachan Free Church,55.48,-2.552,GB
l131,Wivelscombe,51.044,-3.314,GB
l1310,Strachan,57.02,-2.541,GB
l1311,"Stracathro Hospital, Brechin",56.775,-2.613,GB
l1312,Stracathro,56.777,-2.617,GB
l1313,"Strabane, Ireland",54.827,-7.463,GB
l1314,"Strabane, County Donegal",54.827,-7.463,GB
l1315,"Strabane, Co. Donegal",54.827,-7.463,GB
l1316,"Stowting, Ashford, UK",51.136,1.037,GB
l1317,Stowmarket,52.189,0.998,GB
l1318,"Stowe/Cheltenham, Gloucestershire",51.935,-1.725,GB
l1319,Stowbridge,52.643,0.363,GB
l132,"Wiveliscombe, Somerset",51.044,-3.314,GB
l1320,"Stow Hill, Hartest, Bury St Edmunds",51.585,-2.997,GB
l1321,Stow,51.931,-1.726,GB
l1322,Stourbridge,52.457,-2.149,GB
l1323,Stornoway,58.209,-6.385,GB
l1324,Stoneyburn,55.844,-3.641,GB
l1325,"Stonelaw H.G. school, Rutherglen",55.821,-4.196,GB
l1326,"Stonehouse, UK",51.744,-2.279,GB
l1327,"Stonehouse, Devon",50.37,-4.156,GB
l1328,Stonehouse,51.744,-2.279,GB
l1329,Stonehaven North,56.964,-2.209,GB
l133,Wiveliscombe,51.044,-3.314,GB
l1330,Stonehaven,56.964,-2.209,GB
l1331,Stonefield,55.457,-4.629,GB
l1332,Stonebyres,55.671,-3.841,GB
l1333,"Stone, Staffordshire",52.908,-2.144,GB
l1334,"Stone of Morphie and Trunkwell, Berkshire",51.375,-1.005,GB
l1335,"Stone of Morphie and Trunkwell, Berks.",51.375,-1.005,GB
l1336,"Stoke, Staffordshire",53.003,-2.179,GB
l1337,"Stoke, Norfolk",52.565,0.505,GB
l1338,"Stoke-sub-Handen, Somerset",50.954,-2.749,GB
l1339,"Stoke Talmage, Oxfordshire",51.687,-1.017,GB
l134,"Witney, Oxfordshire",51.786,-1.485,GB
l1340,Stoke Park,51.535,-0.603,GB
l1341,Stoke on Trent,53.003,-2.179,GB
l1342,"Stoke Newington, London",51.56,-0.079,GB
l1343,Stoke Newington,51.56,-0.079,GB
l1344,"Stoke Damerill, Devon",50.381,-4.166,GB
l1345,Stoke Damerell,50.381,-4.166,GB
l1346,"Stoke Damerel, Devon",50.381,-4.166,GB
l1347,"Stoke bishop, Bristol",51.48,-2.634,GB
l1348,"Stogursey, Somerset",51.18,-3.138,GB
l1349,Stoer,58.202,-5.338,GB
l135,Witney,51.786,-1.485,GB
l1350,"Stockwith, Lincolnshire",53.443,-0.808,GB
l1351,"Stockwith,  Lincs.",53.443,-0.808,GB
l1352,Stockton on Tees,54.57,-1.329,GB
l1353,"Stockport, Cheshire",53.393,-2.127,GB
l1354,Stockport,53.393,-2.127,GB
l1355,Stockholm,59.329,18.069,SE
l1356,"Stockdale, South Australia",-30,136.209,AU
l1357,"Stockdale, S. Australia",-37.81,147.162,AU
l1358,Stockdale,51.516,-0.095,GB
l1359,"Stockbridge, Hants.",51.117,-1.484,GB
l136,"Withington, Manchester",53.431,-2.226,GB
l1360,"Stockbridge, Hampshire",51.117,-1.484,GB
l1361,"Stockbridge, Edinburgh",55.958,-3.209,GB
l1362,Stockbridge,51.117,-1.484,GB
l1363,Stobo parish school,55.626,-3.299,GB
l1364,Stobhill,55.892,-4.218,GB
l1365,Stitchel,55.637,-2.46,GB
l1366,Stirlingshire,56.117,-3.937,GB
l1367,Stirling.,56.117,-3.937,GB
l1368,"Stirling, West",56.117,-3.937,GB
l1369,"Stirling, Jamaica",56.117,-3.937,GB
l137,Withington,53.431,-2.226,GB
l1370,Stirling-shire,56.117,-3.937,GB
l1371,Stirling West,56.117,-3.937,GB
l1372,Stirling United Presbyterian Presbytery,56.117,-3.937,GB
l1373,Stirling U.P. presbytery,56.115,-3.918,GB
l1374,Stirling Secession presbytery,56.117,-3.937,GB
l1375,Stirling secession presbytery,56.117,-3.937,GB
l1376,Stirling presbytery,56.109,-3.967,GB
l1377,Stirling High School,56.105,-3.945,GB
l1378,Stirling Grammar School,56.105,-3.945,GB
l1379,Stirling East,-35.002,138.735,AU
l138,"Withdean, Brighton",50.849,-0.144,GB
l1380,Stirling District Asylum,56.145,-3.921,GB
l1381,Stirling Castle,56.124,-3.947,GB
l1382,Stirling burghs,56.118,-3.937,GB
l1383,Stirling,56.117,-3.937,GB
l1384,"Stillington, Ferryhill, Durham",54.605,-1.421,GB
l1385,"Stillington, Easingwold, Yorkshire",54.121,-1.192,GB
l1386,"Steyning, Sussex",50.887,-0.327,GB
l1387,Stewarton Original Secession Church,55.681,-4.514,GB
l1388,Stewarton,55.68,-4.514,GB
l1389,"Stewart’s Academy, Perth",55.954,-3.226,GB
l139,"Witham, Essex",51.798,0.637,GB
l1390,Stevenston,55.642,-4.76,GB
l1391,Sterling United Presbyterian presbytery,38.21,-98.207,US
l1392,Stepney,51.516,-0.048,GB
l1393,"Stenton, St Monance",56.217,-2.787,GB
l1394,Stenton,55.962,-2.603,GB
l1395,Stenscholl,57.63,-6.233,GB
l1396,Stenschol,57.63,-6.233,GB
l1397,"Stennis, Orkney",58.988,-3.207,GB
l1398,Stenness,58.988,-3.207,GB
l1399,Stellenbosch University,-33.933,18.864,ZA
l14,"Yorkton, Saskatoon, Canada",51.217,-102.474,CA
l140,Witham,51.798,0.637,GB
l1400,Stellenbosch,-33.932,18.86,ZA
l1401,"Steeven’s hospital, Dublin",53.346,-6.292,IE
l1402,Steeven’s hospital,53.346,-6.292,IE
l1403,Steeven's hospital,53.346,-6.292,IE
l1404,"Steedman, Ramage and Co., W.S. [Writer to the Signet], Edinburgh",55.953,-3.188,GB
l1405,"Staunton, Virginia, USA",38.15,-79.072,US
l1406,Stathmiglo,56.278,-3.268,GB
l1407,Stathaven,55.676,-4.064,GB
l1408,"State University, Vermillion, South Dakota",42.788,-96.925,US
l1409,State Senate,42.652,-73.757,US
l141,Wistow,52.562,-1.055,GB
l1410,State of [South Carolina],33.836,-81.164,US
l1411,"State Normal School, new Britain, Connecticut",41.693,-72.764,US
l1412,"State Hospital, Butner, North Carolina",36.146,-78.772,US
l1413,"State College, Madison",40.781,-77.875,US
l1414,"Starbank, Trinity, Edinburgh",55.98,-3.201,GB
l1415,"Star subscription school, Star, Markinch",56.218,-3.109,GB
l1416,Star,55.333,-3.444,GB
l1417,"Stapleton, Dumfries",54.989,-3.247,GB
l1418,"Staplehurst, Kent",51.163,0.553,GB
l1419,"Stanton by Bridge, Derbyshire",52.841,-1.448,GB
l142,"Wistonslow, Shropshire",52.467,-2.835,GB
l1420,Stanstead,52.111,0.692,GB
l1421,"Stanningfield, Bury St Edmunds",52.243,0.71,GB
l1422,"Stanley, Warrington, Lancashire",53.39,-2.597,GB
l1423,"Stanley, New Brunswick",46.283,-66.739,CA
l1424,"Stanley House School, Bridge of Allan",56.153,-3.94,GB
l1425,"Stanley Hospital, Liverpool",53.409,-2.922,GB
l1426,Stanley chapel,54.872,-1.683,GB
l1427,Stanley,54.869,-1.699,GB
l1428,"Stanford Rivers, Essex",51.685,0.217,GB
l1429,"Standish, Gloucestershire",51.772,-2.284,GB
l143,"Wiston, Pembrokeshire",51.826,-4.872,GB
l1430,Stamfordham Presbyterian Congregation,55.043,-1.878,GB
l1431,Stamfordham,55.042,-1.877,GB
l1432,"Stamford, Lincs.",52.651,-0.48,GB
l1433,"Stamford, Lincolnshire",52.651,-0.48,GB
l1434,Stamford Hill,51.568,-0.073,GB
l1435,Stamford,52.651,-0.48,GB
l1436,"Stalybridge, Cheshire",53.484,-2.05,GB
l1437,Stalybridge Technical School,53.488,-2.08,GB
l1438,Stalybridge,53.484,-2.05,GB
l1439,Stair,55.478,-4.473,GB
l144,Wiston,50.913,-0.363,GB
l1440,"Staines, Middlesex",51.431,-0.516,GB
l1441,Staines,51.431,-0.516,GB
l1442,Staffordshire General Infirmary,53.004,-2.213,GB
l1443,Stafford County Asylum,52.81,-2.109,GB
l1444,Stafford,52.807,-2.121,GB
l1445,Staff,52.487,-1.913,GB
l1446,"St. Marys Chapel, Park St., Grosvenor Square",51.509,-0.151,GB
l1447,"St. Mary’s, Warwick",52.282,-1.588,GB
l1448,"St. George's, Grenada",12.056,-61.749,GD
l1449,St Vincent's Hospital,53.317,-6.214,IE
l145,"Wishaw, UK",55.774,-3.919,GB
l1450,St Vincent and the Grenadines,12.984,-61.287,VC
l1451,St Vincent,55.958,-3.204,GB
l1452,St Vigeans,56.576,-2.59,GB
l1453,"St Thomas’s, British Guiana",4.86,-58.93,GY
l1454,St Thomas’s Mount,13.005,80.193,IN
l1455,"St Thomas’s Lunatic Asylum, Exeter",50.715,-3.54,GB
l1456,St Thomas’s hospital,51.498,-0.119,GB
l1457,"St Thomas's hospital, London",51.498,-0.119,GB
l1458,St Thomas's hospital,51.498,-0.119,GB
l1459,St Thomas's,51.498,-0.119,GB
l146,Wishaw,55.774,-3.919,GB
l1460,"St Thomas parish, South Carolina",32.781,-79.934,US
l1461,"St Stephens, Perth",-31.809,115.798,AU
l1462,"St Stephens, Edinburgh",55.96,-3.22,GB
l1463,"St Stephens, Caulfield",-37.883,145.033,AU
l1464,"St Stephens Chapel, Perth",55.912,-4.421,GB
l1465,"St Stephen’s, Edinburgh",55.96,-3.22,GB
l1466,"St Stephen’s, Bathurst",-33.416,149.58,AU
l1467,St Servain,48.637,-2.015,FR
l1468,"St Sephens, Perth",-31.809,115.798,AU
l1469,"St Saviours, St George’s Square, London",51.488,-0.135,GB
l147,"Wisbech, London",51.535,-0.27,GB
l1470,"St Saviours, Southwark",51.504,-0.094,GB
l1471,"St Saviours, Paddington",51.524,-0.184,GB
l1472,"St Saviour’s, Southwark",51.503,-0.094,GB
l1473,"St Saviour’s, Pimlico",51.488,-0.135,GB
l1474,St Salvator’s College,56.342,-2.792,GB
l1475,St Roques,44.989,1.07,FR
l1476,"St Phillips, Minorca",39.868,4.302,ES
l1477,"St Philip and St James, Edinburgh",55.971,-3.209,GB
l1478,St Petersburgh,59.934,30.335,RU
l1479,"St Petersburg, Russia",59.934,30.335,RU
l148,"Wisbech St Peters, Cambridgeshire",52.67,0.174,GB
l1480,St Petersburg,59.934,30.335,RU
l1481,St Peters. Ipswich,52.053,1.154,GB
l1482,"St Peters School, Dundee",56.473,-2.981,GB
l1483,"St Peter’s, Clifton, Jamaica",53.659,-1.558,GB
l1484,"St Peter’s School, Dundee",56.473,-2.981,GB
l1485,St Peter’s Kirkcaldy,56.114,-3.16,GB
l1486,"St Peter’s hospital, Bristol",51.455,-2.59,GB
l1487,"St Peter’s Free Church, Glasgow",55.862,-4.265,GB
l1488,"St Peter’s Alley, Cornhill",51.513,-0.085,GB
l1489,"St Peter Port, Guernsey",49.454,-2.55,GG
l149,Wisbech,52.666,0.159,GB
l1490,"St Pauls, Dundee",56.487,-2.979,GB
l1491,"St Paul’s, Wigan",53.526,-2.655,GB
l1492,"St Paul’s, Touro, Nova Scotia",45.359,-63.304,CA
l1493,"St Paul’s, Sheffield",53.38,-1.469,GB
l1494,"St Paul’s, Perth",56.396,-3.435,GB
l1495,"St Paul’s, Glasgow",55.825,-4.337,GB
l1496,"St Paul’s, Dundee",56.487,-2.979,GB
l1497,"St Paul’s, Aberdeen",57.15,-2.098,GB
l1498,St Paul’s South Shields,54.975,-1.441,GB
l1499,St Paul’s School,51.488,-0.237,GB
l15,"Yorkshire Street, Burnley",53.789,-2.237,GB
l150,Wirral,53.373,-3.074,GB
l1500,"St Paul’s Herne Hill, Dulwich",51.455,-0.099,GB
l1501,St Paul’s Free Church,50.84,0.464,GB
l1502,St Paul’s Church Montreal,45.496,-73.629,CA
l1503,"St Paul’s Chapel, Carrubers Close",55.951,-3.187,GB
l1504,St Paul’s,51.514,-0.098,GB
l1505,"St Pancras, London",51.531,-0.126,GB
l1506,St Pancras Royal General Dispensary,51.532,-0.12,GB
l1507,St Pancras,51.531,-0.126,GB
l1508,"St Oswald, Bradford",53.781,-1.782,GB
l1509,St Omer,50.75,2.252,FR
l151,"Wirksworth, Derbyshire",53.083,-1.571,GB
l1510,St Olave’s Priory,52.538,1.624,GB
l1511,"St Ninians, Stirling",56.1,-3.94,GB
l1512,"St Ninians, Aberdeen",57.171,-2.095,GB
l1513,St Ninians,55.799,-4.302,GB
l1514,"St Ninian’s, Stirling",56.1,-3.94,GB
l1515,"St Ninian’s, Arbroath",56.566,-2.568,GB
l1516,"St Ninian’s school, Stirling",56.104,-3.943,GB
l1517,St Ninian’s Relief Church,56.098,-3.938,GB
l1518,St Ninian’s parish,55.697,-3.986,GB
l1519,St Ninian’s Glasgow,55.799,-4.302,GB
l152,Wirksworth,53.083,-1.571,GB
l1520,"St Ninian’s Cathedral, Perth",56.399,-3.435,GB
l1521,"St Nicholas, Deptford",51.482,-0.023,GB
l1522,"St Nicholas United Presbyterian Church, Aberdeen",57.148,-2.099,GB
l1523,"St Nicholas U.P. Church, Aberdeen",57.148,-2.099,GB
l1524,"St Nicholas Poorhouse, Aberdeen",57.15,-2.094,GB
l1525,St Nicholas farm,56.333,-2.781,GB
l1526,St Nicholas,55.674,-3.78,GB
l1527,St Neots,52.23,-0.265,GB
l1528,St Mungo’s Glasgow,55.865,-4.238,GB
l1529,"St Mungo’s College, Glasgow",55.854,-4.22,GB
l153,"Winyaw, South Carolina, USA",33.27,-79.242,US
l1530,"St Mungo, Lochmaben",55.083,-3.345,GB
l1531,St Monans,56.205,-2.766,GB
l1532,St Monance,56.205,-2.766,GB
l1533,St Mildred’s House,51.38,1.338,GB
l1534,"St Michaels, Lewes",50.872,0.007,GB
l1535,"St Michael’s, Oxford",51.753,-1.259,GB
l1536,"St Michael’s Mission, North Kensington",51.521,-0.212,GB
l1537,St Mawes,50.159,-5.015,GB
l1538,"St Matthews, Glasgow",55.888,-4.257,GB
l1539,"St Matthews U.F. Church, Glasgow",55.906,-4.224,GB
l154,Winterton,53.656,-0.602,GB
l1540,St Matthews Holbeck,53.785,-1.56,GB
l1541,"St Matthew’s Free Church, Glasgow",55.906,-4.224,GB
l1542,St Matthew’s Edinburgh,55.855,-3.135,GB
l1543,"St Marylebone, Middlesex",51.523,-0.152,GB
l1544,"St Marylebone, London",51.519,-0.15,GB
l1545,St Marylebone,51.519,-0.15,GB
l1546,"St Mary’s, Ronaldshay",56.017,-3.714,GB
l1547,"St Mary’s, Partick",55.873,-4.302,GB
l1548,"St Mary’s, Nottingham",52.951,-1.143,GB
l1549,"St Mary’s, Morley",53.747,-1.601,GB
l155,Winterslow,51.09,-1.671,GB
l1550,"St Mary’s, Marlborough",51.417,-1.728,GB
l1551,"St Mary’s, Lambeth",51.496,-0.113,GB
l1552,"St Mary’s, Hawick",55.42,-2.789,GB
l1553,"St Mary’s, Ely",52.398,0.258,GB
l1554,"St Mary’s, Cupar",56.191,-3.16,GB
l1555,St Mary’s property in Market Street,55.95,-3.184,GB
l1556,St Mary’s Newington,51.489,-0.105,GB
l1557,St Mary’s Leicester,52.618,-1.154,GB
l1558,"St Mary’s Isle, Kirkcudbright",54.819,-4.068,GB
l1559,"St Mary’s hospital, Paris",53.801,-1.612,GB
l156,Winsley Sanatorium,51.347,-2.286,GB
l1560,"St Mary’s hospital, Paddington",51.517,-0.174,GB
l1561,"St Mary’s hospital, Nottingham",52.951,-1.143,GB
l1562,"St Mary’s hospital, Manchester",53.461,-2.225,GB
l1563,"St Mary’s hospital, London",51.517,-0.174,GB
l1564,St Mary’s hospital,51.517,-0.174,GB
l1565,"St Mary’s Home, Chelsea",51.493,-0.162,GB
l1566,St Mary’s Glasgow,55.874,-4.275,GB
l1567,St Mary’s Dumfries,55.072,-3.603,GB
l1568,"St Mary’s College, St Andrews",56.339,-2.795,GB
l1569,St Mary’s College at Edinburgh University,55.947,-3.22,GB
l157,"Winnipeg, Canada",49.895,-97.138,CA
l1570,St Mary’s College,54.767,-1.578,GB
l1571,"St Mary’s Chapel of Ease, Dumfries",55.07,-3.606,GB
l1572,St Mary’s Broughty Ferry,56.468,-2.877,GB
l1573,St Mary’s Beverley,53.844,-0.434,GB
l1574,St Mary’s [? British Guiana],4.86,-58.93,GY
l1575,St Mary's hospital,51.517,-0.174,GB
l1576,St Mary's College,54.767,-1.578,GB
l1577,"St Mary's Chapel, Park Street, Grosvenor Square",51.509,-0.151,GB
l1578,St Mary Woolnoth,51.513,-0.088,GB
l1579,"St Mary Radcliff, Bristol",51.448,-2.59,GB
l158,Winnipeg,49.895,-97.138,CA
l1580,St Mary Plaistow,51.413,0.015,GB
l1581,"St Mary Magdalene, Dundee",56.464,-2.978,GB
l1582,"St Mary Magdalen’s, Dundee",56.464,-2.978,GB
l1583,"St Mary Church, Devon",50.483,-3.525,GB
l1584,St Mary Church,55.786,-3.994,GB
l1585,"St Mary and St Leonard, Wallingford",51.6,-1.125,GB
l1586,"St Mary Abbots, Kensington",51.502,-0.192,GB
l1587,"St Martins in the Fields, London",51.509,-0.127,GB
l1588,St Martins,51.622,0.344,GB
l1589,"St Martin’s, Kensal Rise",51.531,-0.224,GB
l159,"Winkworth Hall, Brondesbury",51.535,-0.219,GB
l1590,"St Marnochs, Kilmarnock",55.608,-4.498,GB
l1591,"St Marks, Guyana",4.86,-58.93,GY
l1592,"St Marks, British Guiana",56.13,-3.948,GB
l1593,"St Marks Parish Church, Dundee",56.465,-2.967,GB
l1594,"St Marks College, Chelsea",50.421,-4.11,GB
l1595,"St Marks Chapel, Perth",56.401,-3.468,GB
l1596,"St Mark’s, Peckham",51.474,-0.08,GB
l1597,"St Mark’s, British Guiana",53.831,-3.031,GB
l1598,"St Mark’s Episcopal Church, Portobello",55.951,-3.109,GB
l1599,"St Mark's, Guyana",4.86,-58.93,GY
l16,"Yorkshire St., Burnley",53.789,-2.237,GB
l160,Windygates,56.196,-3.051,GB
l1600,"St Mark, Harrogate",53.982,-1.536,GB
l1601,"St Mark, Cheltenham",51.899,-2.114,GB
l1602,"St Margaret’s, Lochee",56.469,-3.005,GB
l1603,"St Margaret’s Ladies College, Edinburgh",55.93,-3.171,GB
l1604,St Margaret’s Arbroath,56.56,-2.594,GB
l1605,"St Magnus, London Bridge and St Michael",51.509,-0.086,GB
l1606,St Madoes,56.375,-3.307,GB
l1607,St Maarten,18.042,-63.055,SX
l1608,"St Lukes, Guyana",4.86,-58.93,GY
l1609,"St Lukes, British Guiana",55.879,-4.299,GB
l161,Windward Islands,13.444,-61.304,VC
l1610,"St Luke’s, Montrose",55.879,-4.299,GB
l1611,"St Luke’s, Glasgow",55.855,-4.235,GB
l1612,"St Luke’s, Edinburgh",56.469,-2.884,GB
l1613,"St Luke’s, British Guiana",4.86,-58.93,GY
l1614,"St Luke’s, Bathurst, New Brunswick",47.626,-65.664,CA
l1615,"St Luke’s hospital, London",51.512,0.014,GB
l1616,St Luke’s hospital,53.784,-1.762,GB
l1617,"St Luke’s Home, Boston",51.897,-8.398,IE
l1618,"St Luke's, Guyana",4.86,-58.93,GY
l1619,"St Luke, Beeston Hill",53.782,-1.553,GB
l162,"Windsor, Berkshire",51.482,-0.614,GB
l1620,"St Leonards, St Andrews",56.339,-2.79,GB
l1621,"St Leonards, Perth",56.392,-3.433,GB
l1622,St Leonards-on-Sea,50.856,0.553,GB
l1623,"St Leonards School, St Andrews",56.339,-2.79,GB
l1624,St Leonards parish,55.772,-4.142,GB
l1625,St Leonards on Sea,50.856,0.553,GB
l1626,"St Leonards Hall School, St Andrews",56.339,-2.79,GB
l1627,St Leonards Hall,55.94,-3.171,GB
l1628,St Leonards College Hall,56.339,-2.79,GB
l1629,St Leonards College,56.339,-2.79,GB
l163,"Windsor, Australia",-33.615,150.817,AU
l1630,St Leonards,50.856,0.553,GB
l1631,"St Leonard’s School, St Andrews",56.339,-2.79,GB
l1632,St Leonard’s College,56.339,-2.79,GB
l1633,"St Leonard, Shoreditch",51.527,-0.077,GB
l1634,"St Lawrence, Pudsey",53.794,-1.672,GB
l1635,"St Lawrence, Pembrokeshire",51.677,-4.737,GB
l1636,St Kitts,17.343,-62.756,KN
l1637,"St Katherine’s School, St Andrews",56.343,-2.797,GB
l1638,"St Jude, Hunslet",53.784,-1.535,GB
l1639,"St Joseph, Trinidad",10.659,-61.417,TT
l164,"Windsor,  Berks.",51.482,-0.614,GB
l1640,"St Johns, Newfoundland, Canada",47.562,-52.713,CA
l1641,"St Johns, Newfoundland",47.562,-52.713,CA
l1642,"St Johns, New Brunswick",45.273,-66.063,CA
l1643,"St Johns, Greenock",55.951,-4.765,GB
l1644,"St Johns, Glasgow",55.886,-4.307,GB
l1645,"St Johns, Dundee",56.475,-2.996,GB
l1646,"St Johns, Dalry",55.107,-4.163,GB
l1647,"St Johns, Antigua",17.127,-61.847,AG
l1648,"St Johns Wood, London",51.532,-0.177,GB
l1649,St Johns Wood,51.532,-0.177,GB
l165,Windsor,51.482,-0.614,GB
l1650,"St Johns U.F., Leith",55.976,-3.167,GB
l1651,"St Johns Free Church, Glasgow",55.886,-4.307,GB
l1652,"St Johns College, Oxford",51.756,-1.259,GB
l1653,"St Johns College, Manitoba",49.811,-97.137,CA
l1654,St Johns,55.951,-3.181,GB
l1655,St John’s. Dundee,56.475,-2.996,GB
l1656,"St John’s, Pittenweem",56.214,-2.728,GB
l1657,"St John’s, Leith",55.973,-3.167,GB
l1658,St John’s Wood,51.532,-0.177,GB
l1659,"St John’s School, South Shields",54.981,-1.406,GB
l166,Windshiel,55.929,-3.298,GB
l1660,St John’s hospital for women,55.892,-3.524,GB
l1661,St John’s hospital,55.892,-3.524,GB
l1662,"St John’s Episcopal Church, Pittenweem",56.214,-2.728,GB
l1663,St John’s Episcopal Church,55.072,-3.607,GB
l1664,St John’s Dundee,56.475,-2.996,GB
l1665,St John’s Deptford,51.469,-0.023,GB
l1666,"St John’s College, Oxford",51.756,-1.259,GB
l1667,"St John’s College, Battersea",51.475,-0.172,GB
l1668,"St John’s Church, M’Lennan’s Mountain, Nova Scotia",44.378,-64.311,CA
l1669,St John’s Church Cinderford,51.813,-2.505,GB
l167,"Windmill, St Andrews",56.341,-2.805,GB
l1670,St John’s Cathedral,56.416,-5.473,GB
l1671,St John’s Aberdeen,57.143,-2.101,GB
l1672,St John’s,55.951,-3.181,GB
l1673,St John's hopsital for Diseases of the Skin,55.892,-3.524,GB
l1674,"St John, Wakefield",53.689,-1.508,GB
l1675,"St John, Paramatta",-33.816,151.003,AU
l1676,"St John, Forres",57.612,-3.607,GB
l1677,"St John the Evangelist, Jedburgh",55.481,-2.554,GB
l1678,St John Berlin,43.967,-88.952,US
l1679,St John & St Thomas Ontario,42.78,-81.19,CA
l168,"Windmill Street, London",51.519,-0.134,GB
l1680,"St James’s, Westminster",51.507,-0.136,GB
l1681,"St James’s, Clapham",51.458,-0.133,GB
l1682,St James’s Leith,55.972,-3.167,GB
l1683,St James’s Dulwich,51.507,-0.136,GB
l1684,"St James’s Charlottetown, Prince Edward Island",46.235,-63.133,CA
l1685,"St James’ chapel, York St.",53.94,-1.124,GB
l1686,"St James, Westminster",51.507,-0.136,GB
l1687,"St James, Parkhill, Ontario",43.161,-81.688,CA
l1688,"St James, Gateshead",54.961,-1.589,GB
l1689,"St James, Forfar",56.641,-2.889,GB
l169,"Windmill Street School, London",51.512,-0.134,GB
l1690,"St James, Edinburgh",55.955,-3.19,GB
l1691,"St James, Ayr",55.474,-4.625,GB
l1692,"St James Presbyterian church, Newcastle, New Brunswick",47.004,-65.568,CA
l1693,St James Chronicle,54.976,-1.622,GB
l1694,"St Ives, Huntingdon",52.333,-0.076,GB
l1695,"St Ives, Hants.",50.836,-1.827,GB
l1696,"St Ives, Hampshire",50.836,-1.827,GB
l1697,"St Hellier, Jersey",49.181,-2.103,JE
l1698,"St Heliers, Jersey",49.181,-2.103,JE
l1699,"St Helier, Jersey",49.181,-2.103,JE
l17,Yorkshire Museum,53.962,-1.087,GB
l170,"Windmill St., London",51.519,-0.134,GB
l1700,St Helier,49.181,-2.103,JE
l1701,"St Helens, Lancashire",53.456,-2.737,GB
l1702,"St Helens, Auckland",54.635,-1.712,GB
l1703,St Helens,53.456,-2.737,GB
l1704,St Helena,-15.965,-5.709,SH
l1705,"St Giles, Edinburgh",55.949,-3.191,GB
l1706,"St Giles, Clerkenwell",51.519,-0.094,GB
l1707,"St Giles in the Fields, Middlesex",51.515,-0.128,GB
l1708,"St Giles Fields, Middlesex",51.515,-0.128,GB
l1709,St Giles and Bloomsbury,51.517,-0.131,GB
l171,Windermere,54.374,-2.938,GB
l1710,St Giles,55.949,-3.191,GB
l1711,St Gerrans,50.178,-4.981,GB
l1712,"St Georges, Bolton-le-Moors",53.58,-2.424,GB
l1713,St Georges hospital,51.425,-0.175,GB
l1714,St Georges,55.071,-3.613,GB
l1715,"St George’s, Doncaster",53.526,-1.135,GB
l1716,"St George’s, Bloomsbury",51.518,-0.125,GB
l1717,"St George’s, Ascot",51.409,-0.668,GB
l1718,St George’s school of medicine,51.064,-1.314,GB
l1719,"St George’s Rd, Bolton",53.581,-2.434,GB
l172,Winchester College,51.058,-1.313,GB
l1720,"St George’s Place, Canterbury",51.276,1.085,GB
l1721,St George’s Montrose,56.707,-2.466,GB
l1722,St George’s hospitals,51.425,-0.175,GB
l1723,"St George’s hospital, London",51.425,-0.175,GB
l1724,St George’s hospital,51.425,-0.175,GB
l1725,St George’s Hanover Street Dispensary,51.513,-0.143,GB
l1726,St George’s Glasgow,55.871,-4.268,GB
l1727,"St George’s Free Church, Liverpool",53.425,-2.842,GB
l1728,"St George’s East, London, South Africa",-32.999,27.911,ZA
l1729,"St George’s District, Manchester",53.472,-2.264,GB
l173,Winchester,51.06,-1.31,GB
l1730,"St George’s (Wynd or West) Church, Glasgow",55.862,-4.254,GB
l1731,St George's hospital,51.425,-0.175,GB
l1732,"St George the Martyr, Middlesex",51.521,-0.122,GB
l1733,St George,55.071,-3.613,GB
l1734,"St Gabriel’s Church, Montreal",45.481,-73.566,CA
l1735,St Fort,56.406,-2.96,GB
l1736,St Fillans Chapel,55.866,-4.549,GB
l1737,St Fergus,57.557,-1.839,GB
l1738,"St Felix School, Southwell",52.335,1.654,GB
l1739,St Edmund’s Hall. Oxford,51.753,-1.25,GB
l174,"Wincanton, Somerset",51.056,-2.416,GB
l1740,"St Dunstan, London",51.51,-0.083,GB
l1741,"St Davids, St Johns, New Brunswick",45.271,-66.06,CA
l1742,"St Davids, Pembroke",51.881,-5.266,GB
l1743,"St Davids, Edinburgh",55.974,-3.251,GB
l1744,St Davids,51.881,-5.266,GB
l1745,"St David’s, New Brunswick",45.259,-67.245,CA
l1746,"St David’s, Dundee",56.459,-2.972,GB
l1747,"St David’s Free Church School, Dundee",56.47,-2.984,GB
l1748,St David’s Free Church,53.77,-2.72,GB
l1749,"St David’s , Dundee",56.459,-2.972,GB
l175,Wincanton,51.056,-2.416,GB
l1750,St Cyrus,56.775,-2.416,GB
l1751,"St Cuthberts, Edinburgh",55.95,-3.205,GB
l1752,St Cuthbert’s Chapel of Ease,55.95,-3.205,GB
l1753,St Croix,17.725,-64.835,VI
l1754,"St Coombs, Fraserburgh",57.657,-1.91,GB
l1755,"St Coombs, Fraserburg",57.657,-1.91,GB
l1756,"St Columba’s, Portree",57.414,-6.196,GB
l1757,"St Columba’s, Oban",56.401,-5.47,GB
l1758,"St Columba’s, London",51.497,-0.163,GB
l1759,"St Columba’s, Glasgow",55.876,-4.267,GB
l176,Wimpole Street,51.518,-0.148,GB
l1760,"St Columba’s, Blackhall",55.958,-3.252,GB
l1761,St Columba’s Lonmay,57.052,-2.508,GB
l1762,"St Columba’s Church, London",51.497,-0.163,GB
l1763,"St Columba, Helensburgh",56.005,-4.733,GB
l1764,St Columb,50.432,-4.942,GB
l1765,"St Clements, Dundee",56.475,-3.034,GB
l1766,"St Clements, Bedford",51.733,-1.229,GB
l1767,"St Clement’s, Fulham",51.473,-0.198,GB
l1768,"St Clement Deans, Middlesex",51.513,-0.114,GB
l1769,"St Catherines, British Guiana",38.075,23.792,GR
l177,Wimbledon,51.435,-0.214,GB
l1770,St Catherine’s British Guiana,38.075,23.792,GR
l1771,"St Catherine's, Guyana",4.86,-58.93,GY
l1772,"St Catherine, Tranmere",53.381,-3.028,GB
l1773,"St Catherine, Quebec",45.396,-73.566,CA
l1774,"St Botolphs, Aldgate",51.514,-0.076,GB
l1775,"St Boswells, St Modans",55.571,-2.64,GB
l1776,St Boswells,55.571,-2.648,GB
l1777,St Batholomew's hospital,51.518,-0.1,GB
l1778,St Bartholomews hospital,51.518,-0.1,GB
l1779,St Bartholomew’s hospitals,51.518,-0.1,GB
l178,Wiltshire,51.349,-1.993,GB
l1780,"St Bartholomew’s hospital, London",51.518,-0.1,GB
l1781,St Bartholomew’s hospital,51.518,-0.1,GB
l1782,St Bartholomew’s hospita,51.518,-0.1,GB
l1783,St Bartholomew’s Grahamstown,-33.315,26.531,ZA
l1784,St Bartholomew’ hospital,51.518,-0.1,GB
l1785,"St Bartholomew's hospital, London",51.518,-0.1,GB
l1786,St Bartholomew's hospital,51.518,-0.1,GB
l1787,St Barthlomew’s hospital,51.518,-0.1,GB
l1788,St Barholomew’s hospital,51.518,-0.1,GB
l1789,St Barholomew's hospital,51.518,-0.1,GB
l179,"Wilton, Salisbury",51.079,-1.863,GB
l1790,St Austell,50.34,-4.783,GB
l1791,"St Augustine, East Florida, USA",29.901,-81.312,US
l1792,"St Augustine, East Florida",29.901,-81.312,US
l1793,St Aubins in Island of Jersey,49.187,-2.171,JE
l1794,"St Aubin, Jersey",49.187,-2.171,JE
l1795,"St Athan, Glamorgan",51.404,-3.417,GB
l1796,"St Asaph, Flint",53.225,-3.471,GB
l1797,St Asaph,53.258,-3.442,GB
l1798,St Arvans,51.665,-2.697,GB
l1799,"St Annes, Abbots Bromley",52.818,-1.878,GB
l18,Yorkshire College,53.866,-1.688,GB
l180,Wilton,51.079,-1.863,GB
l1800,St Annes on Sea,53.759,-3.016,GB
l1801,"St Andrews, UK",56.34,-2.797,GB
l1802,"St Andrews, Uddingston",55.817,-4.082,GB
l1803,"St Andrews, St Leonards",56.339,-2.79,GB
l1804,"St Andrews, Nassau",25.029,-77.282,BS
l1805,"St Andrews, Kingston",44.233,-76.489,CA
l1806,"St Andrews, Halifax, Nova Scotia",44.64,-63.587,CA
l1807,"St Andrews, Guyana",6.809,-58.166,GY
l1808,"St Andrews, Glasgow",55.855,-4.253,GB
l1809,"St Andrews, fort William",56.818,-5.107,GB
l181,"Wilmslow, Cheshire",53.328,-2.229,GB
l1810,"St Andrews, Dundee",56.34,-2.797,GB
l1811,"St Andrews, Colombo",6.919,79.848,LK
l1812,"St Andrews, Canada",45.074,-67.053,CA
l1813,"St Andrews, Campbeltown, New Brunswick",45.074,-67.053,CA
l1814,"St Andrews, British Guiana",6.809,-58.166,GY
l1815,"St Andrews, Aberdeen",57.149,-2.093,GB
l1816,St Andrews Volunteers,56.187,-3.149,GB
l1817,St Andrews University Library,56.342,-2.796,GB
l1818,St Andrews University Court,56.328,-2.806,GB
l1819,St Andrews University Botanic gardens,56.334,-2.807,GB
l182,Wilmslow,53.328,-2.229,GB
l1820,St Andrews University,56.342,-2.793,GB
l1821,St Andrews Town Council,56.332,-2.826,GB
l1822,St Andrews town council,56.332,-2.826,GB
l1823,St Andrews Town council,56.332,-2.826,GB
l1824,St Andrews station,56.341,-2.803,GB
l1825,St Andrews Society of Philadelphia,39.949,-75.167,US
l1826,St Andrews Society of New York,40.759,-73.97,US
l1827,St Andrews School for Girls Company,-26.161,28.125,ZA
l1828,St Andrews Railway Co.,56.339,-2.797,GB
l1829,St Andrews presbytery,56.34,-2.795,GB
l183,"Wilmington North, South Australia",-32.649,138.1,AU
l1830,St Andrews Presbytery,56.34,-2.795,GB
l1831,"St Andrews Presbyterian Church, Southampton",50.921,-1.404,GB
l1832,"St Andrews Niagara, Lake Ontario",43.255,-79.08,CA
l1833,"St Andrews National Church, London",51.468,-0.123,GB
l1834,St Andrews Medical Graduates Association,56.341,-2.8,GB
l1835,St Andrews Llanbryd,57.635,-3.22,GB
l1836,St Andrews Literary Magazine,56.342,-2.793,GB
l1837,St Andrews grammar school,55.84,-4.291,GB
l1838,St Andrews Grammar School,55.84,-4.291,GB
l1839,St Andrews grammar School,55.84,-4.291,GB
l184,"Willingham by Stow, Gainsborough",53.35,-0.684,GB
l1840,St Andrews Graduates Association,56.341,-2.8,GB
l1841,St Andrews Gas Co.,56.33,-2.806,GB
l1842,"St Andrews Free Church, Glasgow",55.862,-4.265,GB
l1843,St Andrews Free Church presbytery,56.339,-2.799,GB
l1844,St Andrews Free Church,56.34,-2.802,GB
l1845,"St Andrews Episcopal Church, Brechin",56.733,-2.663,GB
l1846,St Andrews English School,56.343,-2.81,GB
l1847,"St Andrews College, Dublin",53.306,-6.202,IE
l1848,"St Andrews Church, Peterborough, Canada",44.307,-78.327,CA
l1849,"St Andrews Church, Kingston, Ontario",44.233,-76.489,CA
l185,Willingdon,50.799,0.212,GB
l1850,"St Andrews Church, Edinburgh",55.954,-3.196,GB
l1851,"St Andrews Church, Dundee",56.465,-2.967,GB
l1852,"St Andrews Church, Colombo",6.919,79.848,LK
l1853,"St Andrews Cathedral, Inverness",57.474,-4.229,GB
l1854,St Andrews burgh school,56.337,-2.789,GB
l1855,St Andrews - Seaton House,55.18,-1.561,GB
l1856,St Andrews,56.34,-2.797,GB
l1857,"St Andrew’s, Brechin",56.733,-2.663,GB
l1858,"St Andrew’s Scotch School, Buenos Ayres",-34.504,-58.482,AR
l1859,"St Andrew's Scotch School, Buenos Aires, Argentina",-34.504,-58.482,AR
l186,"Williamstown, Victoria",-37.861,144.885,AU
l1860,St Andrew's Edinburgh,55.953,-3.192,GB
l1861,St Andrew presbytery,53.302,-6.184,IE
l1862,St Albans,51.753,-0.339,GB
l1863,St A.,55.762,-4.167,GB
l1864,Srikakulam,18.297,83.897,IN
l1865,"Sri Lanka, Asia",7.873,80.772,LK
l1866,Sri Lanka,7.873,80.772,LK
l1867,Spynie,57.676,-3.296,GB
l1868,Sprouston,55.611,-2.384,GB
l1869,Springkell,55.064,-3.17,GB
l187,Williamscote,52.108,-1.302,GB
l1870,Springfield,56.031,-3.834,GB
l1871,Spott,55.972,-2.526,GB
l1872,Spittal of Glenshee,56.811,-3.461,GB
l1873,Spitalfields,51.52,-0.076,GB
l1874,"Spiers School, Beith",55.745,-4.625,GB
l1875,"Spier’s School, Beith",55.745,-4.625,GB
l1876,Speymouth,57.632,-3.113,GB
l1877,"Spenceville, Canada",44.843,-75.546,CA
l1878,Speenhamland,51.407,-1.327,GB
l1879,Spectator,51.501,-0.131,GB
l188,Williamsburgh,37.271,-76.707,US
l1880,"Spanish Town, Jamaica",18.019,-76.976,JM
l1881,Spanish Town,18.019,-76.976,JM
l1882,"Spaldwick, Huntingdon",52.342,-0.345,GB
l1883,"Spalding, Lincs.",52.79,-0.154,GB
l1884,"Spalding, Lincolnshire",52.79,-0.154,GB
l1885,Spalding,52.79,-0.154,GB
l1886,Spain,40.464,-3.749,ES
l1887,"Spa, Prince-Bishopric of Liège",50.631,5.574,BE
l1888,"Spa, Belgium",50.492,5.864,BE
l1889,Spa,55.947,-3.209,GB
l189,"Williamburg, Canada",44.975,-75.244,CA
l1890,"Sowerby Bridge, Yorkshire",53.707,-1.913,GB
l1891,Sowerby Bridge,53.707,-1.913,GB
l1892,Sowerby,54.224,-1.338,GB
l1893,"Southwold, Suffolk",52.326,1.68,GB
l1894,Southwold,52.326,1.68,GB
l1895,"Southwick Place, London",51.515,-0.169,GB
l1896,Southwick,50.835,-0.238,GB
l1897,"Southwell, Notts",53.079,-0.96,GB
l1898,"Southwell, Nottingham",53.079,-0.96,GB
l1899,Southwark,51.483,-0.082,GB
l19,Yorkshire,54.196,-2.163,GB
l190,"William Home Cook & Co., C.A.",55.859,-4.261,GB
l1900,"Southsea, UK",50.784,-1.086,GB
l1901,"Southsea, Hants",50.784,-1.086,GB
l1902,"Southsea, Hampshire",50.784,-1.086,GB
l1903,Southsea,50.784,-1.086,GB
l1904,"Southport, Lancashire",53.646,-3.01,GB
l1905,Southport,53.646,-3.01,GB
l1906,"Southmuir, Kirriemuir",56.666,-3.002,GB
l1907,"Southminster, Essex",51.662,0.83,GB
l1908,Southesk,56.713,-2.643,GB
l1909,Southern States of America,35.818,-78.626,US
l191,William College,42.713,-73.204,US
l1910,Southern Nigeria,7.475,4.683,NG
l1911,"Southern hospital, Liverpool",53.41,-2.965,GB
l1912,Southern hospital,55.862,-4.34,GB
l1913,Southern California University,34.022,-118.285,US
l1914,Southend on Sea,51.546,0.708,GB
l1915,Southend,51.546,0.708,GB
l1916,"Southdean, UK",55.377,-2.583,GB
l1917,"Southborough, Tunbridge Wells",51.16,0.258,GB
l1918,"Southampton Row, Marylebone",51.522,-0.164,GB
l1919,Southampton Dispensary,50.924,-1.435,GB
l192,"William and Mary College, Edgcombe, North Carolina, U.S.A.",35.783,-78.653,US
l1920,Southampton,50.91,-1.404,GB
l1921,Southam,52.251,-1.39,GB
l1922,Southall Park,51.498,-0.388,GB
l1923,Southall,51.511,-0.377,GB
l1924,South Yell,60.554,-1.099,GB
l1925,South Yarra,-37.84,144.989,AU
l1926,South Wytham,52.766,-0.628,GB
l1927,South West London,51.507,-0.128,GB
l1928,South West Lancashire,53.554,-2.825,GB
l1929,South Uist,57.264,-7.331,GB
l193,"William and Mary College, Edgcombe, N. Carolina",35.879,-77.573,US
l1930,South Street,54.953,-1.598,GB
l1931,South Staffordshire Infirmary,52.81,-2.11,GB
l1932,"South St., St Andrews",56.339,-2.795,GB
l1933,South Shields,54.999,-1.427,GB
l1934,South Seas,53.786,-3.048,GB
l1935,South Ronaldsay,58.807,-2.947,GB
l1936,South Road School,55.889,-3.523,GB
l1937,"South Repps, Norfolk",52.883,1.355,GB
l1938,"South Rauceby, Lincs.",52.999,-0.475,GB
l1939,"South Rauceby, Lincolnshire",52.999,-0.475,GB
l194,William and Mary College,37.272,-76.713,US
l1940,"South Norwood, London",51.4,-0.076,GB
l1941,"South Molton, Devon",51.017,-3.832,GB
l1942,South Molton,51.017,-3.832,GB
l1943,"South Mains, Rescobie",56.659,-2.806,GB
l1944,South London Dispensary,51.497,-0.108,GB
l1945,South London,51.507,-0.128,GB
l1946,south London,51.507,-0.128,GB
l1947,"South Loan Seminary, Forfar",56.644,-2.889,GB
l1948,South Leith,55.972,-3.171,GB
l1949,South Lambeth Grammar School,51.435,-0.138,GB
l195,"Wilberfoss, Yorkshire",53.951,-0.885,GB
l1950,South Knapdale,56.074,-5.542,GB
l1951,South Kirriemuir,56.675,-3.004,GB
l1952,South Kensington,51.494,-0.175,GB
l1953,"South Hackney, London",51.539,-0.05,GB
l1954,"South Glassmount, Kinghorn",56.083,-3.209,GB
l1955,"South Ferriby, Lincs.",53.676,-0.505,GB
l1956,"South Ferriby, Lincolnshire",53.676,-0.505,GB
l1957,South Essex,51.538,0.711,GB
l1958,South Edinburgh,55.953,-3.188,GB
l1959,"South east Lying In hospital, Dublin",53.353,-6.263,IE
l196,Wigtown presbytery,54.87,-4.44,GB
l1960,"South Church, Kirriemuir",56.677,-3.008,GB
l1961,"South Charleton, Northumberland",55.476,-1.745,GB
l1962,South Carolina,33.836,-81.164,US
l1963,"South Bersted, Sussex",50.793,-0.672,GB
l1964,South Australia,-30,136.209,AU
l1965,South America,-8.783,-55.491,BR
l1966,South African Medical Corps,43.509,16.479,HR
l1967,"South African College, Cape Town",-33.971,18.458,ZA
l1968,South Africa,-30.559,22.938,ZA
l1969,Sound of Mull,56.543,-5.947,GB
l197,Wigtown,54.867,-4.444,GB
l1970,"Sorn, Ayrshire",55.509,-4.291,GB
l1971,Sorn,55.509,-4.291,GB
l1972,Sorbonne,48.848,2.343,FR
l1973,Somerville College,51.76,-1.261,GB
l1974,"Somerset, UK",51.105,-2.926,GB
l1975,"Somerset hospital, Cape Town",-33.905,18.417,ZA
l1976,Somerset,51.105,-2.926,GB
l1977,"Somerhill, Tunbridge",51.183,0.3,GB
l1978,Somer Castle,51.463,-2.139,GB
l1979,Somaliland Expeditionary Force,9.412,46.825,SO
l198,Wigtonshire,54.867,-4.444,GB
l1980,Somaliland,9.412,46.825,SO
l1981,Somali Coast,5.152,46.2,SO
l1982,Solihull,52.412,-1.778,GB
l1983,soldier,54.871,-3.387,GB
l1984,Soldier,54.871,-3.387,GB
l1985,Soham,52.335,0.338,GB
l1986,Sodbury,51.535,-2.391,GB
l1987,Society of Medical Officers of Health,53.361,-6.269,IE
l1988,Society of Arts of Scotland,55.941,-2.849,GB
l1989,Society of Arts,51.509,-0.123,GB
l199,"Wigton, Cumberland",54.826,-3.161,GB
l1990,Society of Apothecaries,51.513,-0.103,GB
l1991,"Society of Antiquaries, Edinburgh",55.947,-3.19,GB
l1992,Society of Antiquaries of Scotland,55.947,-3.19,GB
l1993,Society in Scotland for Propagating Christian Knowledge,51.49,-0.131,GB
l1994,Society for Promoting Christian Knowledge,51.49,-0.131,GB
l1995,Snow Hall,54.542,-1.71,GB
l1996,"Snodland, Rochester",51.331,0.445,GB
l1997,"Snaith, Yorkshire",53.691,-1.024,GB
l1998,"Snaigow, Caputh",56.544,-3.485,GB
l1999,Smyrna,38.424,27.143,TR
l2,Zurich,47.377,8.542,CH
l20,"York, Toronto",43.696,-79.45,CA
l200,Wigton presbytery,54.827,-3.156,GB
l2000,"Smiths Falls, Canada",44.904,-76.022,CA
l2001,Smithfield,54.98,-2.874,GB
l2002,Smith and Govan,55.86,-4.328,GB
l2003,"Smisby, Derby",52.768,-1.485,GB
l2004,"Smiddygreen, Boarhills",56.317,-2.706,GB
l2005,Smiddygreen,55.006,-3.062,GB
l2006,"Smethwick, Birmingham",52.492,-1.965,GB
l2007,Smedleys Hydropathic Establishment Matlock,53.137,-1.552,GB
l2008,"Smeaton’s School, St Andrews",56.342,-2.793,GB
l2009,Smailholm,55.62,-2.558,GB
l201,Wigton,54.826,-3.161,GB
l2010,"Sloane Street, Chelsea, London",51.497,-0.159,GB
l2011,"Sloane St., Chelsea",51.496,-0.159,GB
l2012,"Sloan Street, Chelsea",51.496,-0.159,GB
l2013,"Slingsby, Yorkshire",54.167,-0.932,GB
l2014,"Slingsby, Yorks.",54.167,-0.932,GB
l2015,"Sligo, Ireland",54.277,-8.476,IE
l2016,Sleat,57.034,-5.968,GB
l2017,"Sleaford, Lincs.",53,-0.41,GB
l2018,"Sleaford, Lincolnshire",53,-0.41,GB
l2019,"Sleaford,  Lincs.",53,-0.41,GB
l202,"Wigston Magna, Leicestershire",52.586,-1.106,GB
l2020,Slateford,55.931,-3.238,GB
l2021,Slamannan Public School,55.936,-3.839,GB
l2022,Slamannan,55.937,-3.831,GB
l2023,"Slaithwaite, Yorks.",53.618,-1.881,GB
l2024,"Slains Public School, Aberdeenshire",57.186,-2.102,GB
l2025,"Slaidburn, Yorkshire",53.967,-2.446,GB
l2026,Skye presbytery,57.349,-6.072,GB
l2027,Skye,57.536,-6.226,GB
l2028,Skreen/Akreen,54.241,-8.732,IE
l2029,"Skowhegan, Maine",44.765,-69.719,US
l203,Wigan High School for Boys,53.548,-2.638,GB
l2030,Skirling,55.639,-3.466,GB
l2031,"Skipton, Yorkshire, UK",53.963,-2.016,GB
l2032,Skipton Grammar School,53.963,-2.023,GB
l2033,Skipton,54.894,-2.934,GB
l2034,Skipness,55.767,-5.347,GB
l2035,Skipmess,55.767,-5.347,GB
l2036,Skibo,57.873,-4.132,GB
l2037,Skene,57.483,12.633,SE
l2038,"Skelton, Yorkshire",54.403,-1.855,GB
l2039,"Skelton,  Yorks.",53.998,-1.129,GB
l204,Wigan High School,53.548,-2.638,GB
l2040,Skelmorlie,55.869,-4.89,GB
l2041,"Skelmersdale, Lancs.",53.55,-2.776,GB
l2042,"Skelmersdale, Lancashire",53.55,-2.776,GB
l2043,"Skelbo, Dornoch",57.927,-4.043,GB
l2044,Skegness,53.146,0.338,GB
l2045,"Skegby by Mansefield, Nottinghamshire",53.142,-1.251,GB
l2046,"Sittingbourne, Kent",51.34,0.732,GB
l2047,Sittingbourne,51.34,0.732,GB
l2048,"Sioux City, Iowa",42.496,-96.405,US
l2049,"Sion, Tunbridge Wells",51.126,0.262,GB
l205,Wigan,53.545,-2.633,GB
l2050,"Singapore, Asia",1.352,103.82,SG
l2051,Singapore English Presbyterian church,55.953,-3.205,GB
l2052,Singapore,1.352,103.82,SG
l2053,Sinclairtown,56.131,-3.146,GB
l2054,"Simla, India",31.105,77.173,IN
l2055,Simla,31.105,77.173,IN
l2056,"Silvertown, London",51.503,0.038,GB
l2057,"Silverstone, Towcester",52.073,-1.015,GB
l2058,Silton,51.065,-2.315,GB
l2059,"Silsoe, Bedfordshire",52.01,-0.425,GB
l206,"Widnes, Lancashire",53.361,-2.734,GB
l2060,Silloth,54.868,-3.389,GB
l2061,Silcoates School,53.695,-1.529,GB
l2062,Sierra Leone,8.461,-11.78,SL
l2063,"Sidmouth, Devon",50.679,-3.238,GB
l2064,Sidmouth,50.679,-3.238,GB
l2065,"Sidcup, Kent",51.426,0.101,GB
l2066,Sidcup,51.426,0.101,GB
l2067,Sicily,37.6,14.015,IT
l2068,Shurrery,58.504,-3.644,GB
l2069,Shrewsbury School,52.704,-2.762,GB
l207,Widnes,53.361,-2.734,GB
l2070,Shrewsbury,52.707,-2.755,GB
l2071,"Shotts, Lanarkshire",55.824,-3.806,GB
l2072,"Shotts, Calderhead",55.821,-3.796,GB
l2073,Shotts Ironworks,55.819,-3.792,GB
l2074,Shotts,55.824,-3.806,GB
l2075,Shorncliffe,51.083,1.14,GB
l2076,Shoreditch infirmary,51.534,-0.078,GB
l2077,Shoreditch,51.528,-0.085,GB
l2078,Shoeburyness,51.535,0.791,GB
l2079,"Shirley, Southampton",50.924,-1.425,GB
l208,Widdrington,55.242,-1.624,GB
l2080,"Shipston on Stour, Warwickshire",52.061,-1.623,GB
l2081,"Shipley, Yorkshire",53.836,-1.777,GB
l2082,Shipley,53.836,-1.777,GB
l2083,"Shiell & Small, solicitors, Dundee",56.47,-2.852,GB
l2084,"Shielhill, Kirriemuir",56.682,-3.005,GB
l2085,Shieldhill,55.972,-3.767,GB
l2086,Shieldaig,57.522,-5.651,GB
l2087,Shian,51.538,-0.057,GB
l2088,Sheuchan,54.907,-5.038,GB
l2089,Shettleston,55.851,-4.161,GB
l209,"Widcombe Hill, Bath",51.374,-2.344,GB
l2090,Shetland,60.53,-1.266,GB
l2091,Sheringham,52.944,1.211,GB
l2092,"Shere, Guildford",51.219,-0.465,GB
l2093,"Sherburn Hospital, Durham",54.768,-1.523,GB
l2094,"Sherburn hospital, Durham",54.768,-1.523,GB
l2095,"Sherbrooke, Canada",45.404,-71.893,CA
l2096,"Sherborne, Dorset",50.948,-2.514,GB
l2097,Sherborne,50.948,-2.514,GB
l2098,"Shepton Mallet, Somerset",51.191,-2.548,GB
l2099,Shepherds Bush,51.505,-0.224,GB
l21,"York, Pennsylvania",39.963,-76.728,US
l210,"Widcombe Hill House, Somerset",50.936,-3.117,GB
l2100,shepherd,55.378,-3.437,GB
l2101,Shephall,51.892,-0.176,GB
l2102,Shenley,51.689,-0.278,GB
l2103,"Shenfield, Essex",51.63,0.319,GB
l2104,"Shelton, Staffs.",53.011,-2.185,GB
l2105,"Shelton, Staffordshire",53.011,-2.185,GB
l2106,"Shelton, Hanley, Staffs.",53.019,-2.181,GB
l2107,"Shelton, Hanley, Staffordshire",53.016,-2.183,GB
l2108,Shelton,52.993,-0.838,GB
l2109,"Shelthon, Staffordshire",53.011,-2.185,GB
l211,"Wickliffe, Victoria",-37.676,142.708,AU
l2110,"Shefford, Bedfordshire",52.039,-0.334,GB
l2111,Sheffield University College and University,53.381,-1.488,GB
l2112,Sheffield University,53.381,-1.488,GB
l2113,Sheffield School of medicine,53.378,-1.494,GB
l2114,Sheffield School of Medicine,53.378,-1.494,GB
l2115,"Sheffield Road, Barnsley",53.522,-1.477,GB
l2116,Sheffield Medical School,53.378,-1.494,GB
l2117,Sheffield Independent,53.379,-1.477,GB
l2118,Sheffield General Infirmary,53.409,-1.459,GB
l2119,Sheffield,53.381,-1.47,GB
l212,"Wickhambreaux, Wingham, Kent",51.284,1.184,GB
l2120,Sheerness,51.44,0.764,GB
l2121,"Shedden’s Charity School, Auchterarder",56.301,-3.7,GB
l2122,"Shaw, Lancashire",53.58,-2.091,GB
l2123,"Shaw Hill, Addington, Maidstone",53.683,-2.642,GB
l2124,"Shasten, Dorset",51.005,-2.198,GB
l2125,Sharrington,52.889,1.026,GB
l2126,"Sharps Institution, Perth",56.391,-3.459,GB
l2127,"Sharp’s Institution, Perth",56.408,-3.47,GB
l2128,"Sharp’s Institute, Perth",56.408,-3.47,GB
l2129,"Shapinsay, Orkney",59.044,-2.853,GB
l213,Wickford,51.611,0.521,GB
l2130,Shapinsay Evangelical Union Church,59.044,-2.853,GB
l2131,"Shanklin, Isle of Wight",50.635,-1.175,GB
l2132,Shanklin,50.635,-1.175,GB
l2133,Shanghai,31.23,121.474,CN
l2134,Shandon,55.18,-7.906,IE
l2135,Shaldon,50.536,-3.516,GB
l2136,"Shaftesbury, Dorset",51.005,-2.198,GB
l2137,Shaftesbury,51.005,-2.198,GB
l2138,"Shabenacadie, Nova Scotia",45.088,-63.402,CA
l2139,Shabenacadie N.S.,45.088,-63.402,CA
l214,"Wick, UK",58.439,-3.094,GB
l2140,Seymour township,44.827,-91.431,US
l2141,"Sevenoaks, Kent",51.272,0.191,GB
l2142,Sevenoaks,51.272,0.191,GB
l2143,"Sevastopol, Ukraine",44.617,33.525,UA
l2144,Settle,54.068,-2.278,GB
l2145,"Seton Place, Edinburgh",55.935,-3.183,GB
l2146,Seton,52.075,-1.324,GB
l2147,"Sessional School, Dundee",56.463,-2.973,GB
l2148,"Sessional School St Thomas’s, Leith",55.944,-3.198,GB
l2149,"Serampore, India",22.748,88.339,IN
l215,Wick High School,58.437,-3.102,GB
l2150,"Serampore College, Bengal",22.752,88.352,IN
l2151,"Senior School, Free Church Training College, Glasgow",55.867,-4.263,GB
l2152,Senate University of Toronto,43.663,-79.396,CA
l2153,"Senate Room, St Andrews University",56.342,-2.793,GB
l2154,"Selsey, Sussex",50.731,-0.794,GB
l2155,"Selly Oak, Birmingham",52.441,-1.939,GB
l2156,Selkirkshire,55.509,-2.972,GB
l2157,Selkirk Secession presbytery,55.551,-2.839,GB
l2158,Selkirk presbytery,55.549,-2.838,GB
l2159,Selkirk High School,55.549,-2.834,GB
l216,Wick,58.439,-3.094,GB
l2160,Selkirk,55.551,-2.839,GB
l2161,"Selby, Yorkshire",53.784,-1.067,GB
l2162,Selbourne,51.094,-0.939,GB
l2163,Seggie,55.635,-4.752,GB
l2164,"Sefton Park Presbyterian Church, Liverpool",53.394,-2.964,GB
l2165,Sedgeley,52.543,-2.122,GB
l2166,"Sedgefield, Durham",54.659,-1.452,GB
l2167,Sedbergh,54.324,-2.528,GB
l2168,"Secunderabad, India",17.44,78.498,IN
l2169,"Secretary’s Office, G.P.O., London",51.507,-0.128,GB
l217,Wicham,50.898,-1.188,GB
l2170,Secret Department,45.555,9.106,IT
l2171,Secession theological hall,44.226,-76.494,CA
l2172,Secession Theological Hall,44.226,-76.494,CA
l2173,Secession theological college,55.95,-3.194,GB
l2174,"Secession Church, Gorebridge",55.837,-3.046,GB
l2175,Secession Church,57.665,-4.342,GB
l2176,Secession church,57.665,-4.342,GB
l2177,"Seaview, St Andrews",56.343,-2.799,GB
l2178,Seaton Delaville,55.071,-1.528,GB
l2179,"Seaton Delaval, Northumberland",55.071,-1.528,GB
l218,Whorlton,54.529,-1.839,GB
l2180,Seaton,50.705,-3.072,GB
l2181,"Seamen’s Hospital, Hong Kong",22.396,114.109,HK
l2182,"Seamen’s Friendly Society, Greenock",55.956,-4.772,GB
l2183,Seaham,54.84,-1.338,GB
l2184,"Seagate, Dundee",56.463,-2.966,GB
l2185,"Seaford, Sussex",50.773,0.101,GB
l2186,Seaford,50.773,0.101,GB
l2187,"Seafield, Emsworth, Hampshire",50.848,-0.938,GB
l2188,Seafield of Dundee,56.455,-2.988,GB
l2189,Seafield,55.877,-3.588,GB
l219,"Whittlesea, Cambridgeshire",52.558,-0.13,GB
l2190,Seacliff Mental Hospital,-45.679,170.625,NZ
l2191,"Sea Bathing Infirmary, Margate",51.385,1.367,GB
l2192,Scutari,41.019,29.058,TR
l2193,"Sculcoates, Hull",53.762,-0.345,GB
l2194,Sculcoates,53.762,-0.345,GB
l2195,Scottish Students Song Book Committee Ltd,56.491,-4.203,GB
l2196,Scottish Provident Institution,55.862,-4.267,GB
l2197,"Scottish Naval and Military Academy, Edinburgh",55.912,-3.241,GB
l2198,Scottish Naval and Military Academy,56.032,-3.449,GB
l2199,"Scottish Institution for education of imbeciles, Larbert",56.02,-3.836,GB
l22,"York, Canada",43.696,-79.45,CA
l220,Whittlesea,-37.538,145.093,AU
l2200,"Scottish Equitable Life Insurance Co., Edinburgh",55.953,-3.188,GB
l2201,"Scottish Episcopal Church theological hall, Edinburgh",55.951,-3.187,GB
l2202,Scottish Congregational Theological Hall,55.952,-3.205,GB
l2203,Scottish Command,56.491,-4.203,GB
l2204,"Scottish Church, Sri Lanka",6.919,79.848,LK
l2205,"Scottish Church, Middleburg, Holland",51.915,4.479,NL
l2206,"Scottish Church, Ceylon",55.953,-3.205,GB
l2207,"Scottish Church, Birmingham",52.497,-1.887,GB
l2208,Scottish American Journal,37.09,-95.713,US
l2209,Scott Orphanage,55.954,-3.148,GB
l221,"Whittington, Gloucestershire",51.891,-1.986,GB
l2210,Scott Monument,55.952,-3.193,GB
l2211,"Scotstown, Ireland",54.278,-7.067,IE
l2212,"Scotstounhill, Glasgow",55.884,-4.353,GB
l2213,Scotsman newspaper,55.955,-3.223,GB
l2214,Scotsman,55.951,-3.188,GB
l2215,Scotscraig,56.442,-2.874,GB
l2216,"Scotsburn, Logie Easter",45.65,-62.851,CA
l2217,Scots Sydney,-33.875,151.253,AU
l2218,Scots presbytery London,51.513,-0.121,GB
l2219,Scots Observer,55.86,-4.26,GB
l222,"Whittington,  Gloucs.",51.891,-1.986,GB
l2220,Scots Magazine,55.96,-3.177,GB
l2221,"Scots Kirk, Paris",48.867,2.307,FR
l2222,"Scots Free Church, Calcutta",55.949,-3.194,GB
l2223,"Scots College, Swanbourne",-31.981,115.772,AU
l2224,"Scots Church, Tweedmouth",55.772,-2.002,GB
l2225,"Scots church, Simla",55.953,-3.205,GB
l2226,"Scots Church, Paris",48.867,2.307,FR
l2227,"Scots Church, Newcastle",54.982,-1.601,GB
l2228,"Scots Church, London Wall",51.517,-0.084,GB
l2229,"Scots Church, Kingston",55.979,-4.058,GB
l223,Whittinghame,55.951,-2.638,GB
l2230,"Scots Church, Cape Town",-33.917,18.419,ZA
l2231,"Scots Church, Artillery Street, London",51.497,-0.163,GB
l2232,"Scots Church, Artillery St., London",51.497,-0.163,GB
l2233,Scots Church London Wall,51.517,-0.084,GB
l2234,Scots Church Limasol,34.707,33.023,CY
l2235,Scots Church Dordrecht,51.813,4.69,NL
l2236,Scotland,56.491,-4.203,GB
l2237,Scoonie,56.202,-2.989,GB
l2238,Scone/Perth,56.419,-3.402,GB
l2239,"Scone, UK",56.419,-3.402,GB
l224,"Whitstone, Cornwall",50.759,-4.46,GB
l2240,"Scone, New South Wales",-32.055,150.859,AU
l2241,"Scone, N.S.W.",-32.055,150.859,AU
l2242,"Scone, Muswellbrook",-32.055,150.859,AU
l2243,Scone ,56.419,-3.402,GB
l2244,Scone,56.419,-3.402,GB
l2245,Scilly,49.928,-6.327,GB
l2246,Schools of Connecticut,41.945,-73.44,US
l2247,Schools of Boston,42.402,-71.132,US
l2248,"School Wynd Church, Dundee",56.477,-2.944,GB
l2249,School of Oriental Studies,51.522,-0.129,GB
l225,Whitsome,55.748,-2.217,GB
l2250,"School of Mines, London",51.5,-0.176,GB
l2251,"School of Medicine, Royal Colleges, Edinburgh",55.922,-3.139,GB
l2252,"School of medicine for women, Edinburgh",55.922,-3.139,GB
l2253,"school of Linsted and Ord, Calcutta",22.568,88.353,IN
l2254,School of Fine Arts,53.808,-1.558,GB
l2255,"School of arts, Edinburgh",55.946,-3.199,GB
l2256,"School of Arts, Edinburgh",55.946,-3.199,GB
l2257,school boards in Aberdeenshire,57.284,-2.374,GB
l2258,"Schawe’s Hospital, Prestonpans",55.96,-2.984,GB
l2259,"Scariff, County Clare",52.909,-8.533,IE
l226,Whithorn,54.735,-4.415,GB
l2260,"Scariff, Co. Clare",52.909,-8.533,IE
l2261,"Scarborough, Ontario",43.776,-79.232,CA
l2262,"Scarborough, Medical Officer, North Riding",54.283,-0.4,GB
l2263,Scarborough,54.283,-0.4,GB
l2264,"Scalloway, UK",60.138,-1.282,GB
l2265,"Scallaheen, Tipperary",52.469,-8.163,IE
l2266,Saxe Weimar,52.002,5.929,NL
l2267,Savoch,57.627,-1.934,GB
l2268,Saville Club,51.512,-0.149,GB
l2269,Savile Row,51.511,-0.141,GB
l227,Whitewalls,54.975,-1.612,GB
l2270,"Savannah-la-Mar, Jamaica",18.229,-78.139,JM
l2271,"Saunders Newsletter, Dublin",53.35,-6.26,IE
l2272,"Sauchop, Crail",56.263,-2.617,GB
l2273,Sauchieburn,56.818,-2.551,GB
l2274,Sauchie,56.128,-3.779,GB
l2275,Saskatoon,52.133,-106.67,CA
l2276,Saskatchewan,52.94,-106.451,CA
l2277,"Sarnia, Canada",42.975,-82.407,CA
l2278,Sardinia,40.121,9.013,IT
l2279,"Sarasota Town, Florida",27.336,-82.531,US
l228,Whiteness and Weisdale,60.202,-1.294,GB
l2280,Sarasota,27.336,-82.531,US
l2281,Santiago,-33.449,-70.669,CL
l2282,"Santander, Spain",43.462,-3.81,ES
l2283,"Santa Fé, South America",-31.611,-60.697,AR
l2284,"Santa Cruz, West Indies",18.05,-77.705,JM
l2285,"Santa Cruz, W. I.",36.974,-122.031,US
l2286,"Sanquhar, Dumfriesshire",55.368,-3.927,GB
l2287,Sanquhar South,55.368,-3.927,GB
l2288,Sanquhar,55.368,-3.927,GB
l2289,"Sannaspos, South Africa",-29.15,26.533,ZA
l229,Whiteness,60.202,-1.294,GB
l2290,Sandymount,53.331,-6.216,IE
l2291,"Sandy, Bedfordshire",52.128,-0.287,GB
l2292,"Sandy,  Beds.",52.128,-0.287,GB
l2293,"Sandy Point, St. Kitts",17.355,-62.846,KN
l2294,"Sandwick, Shetland",60.001,-1.234,GB
l2295,Sandwick,60.001,-1.234,GB
l2296,"Sandwich, Kent",51.274,1.337,GB
l2297,"Sandringham Road, West Hartlepool",54.689,-1.223,GB
l2298,"Sandown, Isle of Wight",50.661,-1.149,GB
l2299,Sandown,51.376,-0.362,GB
l23,York School of Medicine,53.95,-1.051,GB
l230,"Whiteleys, Dundee",56.462,-2.971,GB
l2300,Sandness,60.298,-1.653,GB
l2301,"Sandiacre, Derbyshire",52.926,-1.289,GB
l2302,"Sandhurst, Berkshire",51.346,-0.804,GB
l2303,Sandhurst,51.346,-0.804,GB
l2304,"Sandgate Chapel, Folkestone",51.077,1.174,GB
l2305,Sandgate,51.075,1.139,GB
l2306,"Sandford, Dublin",53.334,-6.28,IE
l2307,Sandford,51.332,-2.831,GB
l2308,Sanday Free and United Free Church,55.844,-3.05,GB
l2309,Sanday East,59.246,-2.549,GB
l231,Whiteleys,55.955,-4.59,GB
l2310,Sandall Magna,53.658,-1.486,GB
l2311,"San Remo, Italy",43.816,7.776,IT
l2312,San Remo,43.816,7.776,IT
l2313,"San Ignacio, Cayo District, Belize",17.152,-89.08,BZ
l2314,"San Germano Chisone, Italy",44.898,7.24,IT
l2315,San Francisco,37.775,-122.419,US
l2316,Samoa,-13.759,-172.105,WS
l2317,Samaritan hospital for women and children,51.521,-0.164,GB
l2318,"Salto, Uruguay",-31.385,-57.96,UY
l2319,"Salthill, Slough",51.511,-0.609,GB
l232,"Whiteinch, Glasgow",55.873,-4.332,GB
l2320,Saltcoats Trinity,55.634,-4.788,GB
l2321,Saltcoats,55.638,-4.783,GB
l2322,Saltash,50.409,-4.216,GB
l2323,salt manufacturer,55.472,-4.635,GB
l2324,Salonica,40.64,22.944,GR
l2325,"Salisbury, South Australia",-34.764,138.642,AU
l2326,"Salisbury, S. Australia",-34.764,138.642,AU
l2327,Salisbury Plains,51.214,-1.871,GB
l2328,"Salisbury New Hampshire, U.S.A.",43.38,-71.717,US
l2329,"Salisbury Infirmary, Wiltshire",51.046,-1.789,GB
l233,Whitehaven,54.55,-3.589,GB
l2330,"Salisbury Infirmary,  Wilts.",51.046,-1.789,GB
l2331,Salisbury Infirmary,51.046,-1.789,GB
l2332,Salisbury Diocese,51.067,-1.799,GB
l2333,Salisbury and Southern Wiltshire Museum,51.065,-1.8,GB
l2334,Salisbury and S. Wilts Museum,51.065,-1.8,GB
l2335,Salisbury,51.069,-1.794,GB
l2336,Saline,56.115,-3.569,GB
l2337,"Salford, Manchester",53.488,-2.29,GB
l2338,Salford,53.488,-2.29,GB
l2339,"Salen, Mull",56.517,-5.946,GB
l234,"Whitegate, County Galway",53.495,-8.926,IE
l2340,"Salen, Isle of Mull",56.517,-5.946,GB
l2341,Salen,56.517,-5.946,GB
l2342,"Salem, New York",43.172,-73.328,US
l2343,"Salem, Massachusetts",42.52,-70.897,US
l2344,"Sale, Victoria, Australia",-38.103,147.073,AU
l2345,"Sale, Cheshire",53.426,-2.324,GB
l2346,"Sale English Presbyterian church, Manchester",53.467,-2.25,GB
l2347,Sale,53.432,-2.369,GB
l2348,Saint Kitts and Nevis,17.358,-62.783,KN
l2349,Saint Helena,-15.965,-5.709,SH
l235,"Whitegate,  Co. Galway",53.495,-8.926,IE
l2350,"Safed, Palestine",32.965,35.496,IL
l2351,Saddell,55.532,-5.511,GB
l2352,Sacramento,38.582,-121.494,US
l2353,S.S. Colzean,53.644,-2.613,GB
l2354,S.P.C.K.,51.49,-0.131,GB
l2355,S. Germano Chisone,44.898,7.24,IT
l2356,S. California University,37.802,-122.271,US
l2357,Rylsk,51.576,34.679,RU
l2358,"Ryhope Asylum, Sunderland",54.86,-1.371,GB
l2359,"Ryehill, Dundee",56.457,-2.99,GB
l236,Whitegate,53.219,-2.561,GB
l2360,"Rye Lane, Peckham",51.47,-0.068,GB
l2361,Rye,50.95,0.737,GB
l2362,"Ryde, Isle of Wight",50.73,-1.163,GB
l2363,"Ryde, I.o.W.",50.73,-1.163,GB
l2364,Ryde I.o.W.,50.73,-1.163,GB
l2365,Ryde,50.73,-1.163,GB
l2366,"Rutland Square Lying in hospital, Dublin",53.353,-6.263,IE
l2367,Ruthwell Free Church,55,-3.408,GB
l2368,Ruthwell,54.993,-3.409,GB
l2369,Ruthven (Angus),56.625,-3.167,GB
l237,Whitechapel,51.515,-0.065,GB
l2370,Ruthven,57.07,-4.043,GB
l2371,Ruthin,53.115,-3.31,GB
l2372,Rutherglen Free Church,55.828,-4.211,GB
l2373,Rutherglen Congregational Church,55.824,-4.216,GB
l2374,Rutherglen,55.829,-4.224,GB
l2375,"Rutherford College, Newcastle",54.977,-1.686,GB
l2376,"Rusworth, Australia",-36.627,145.067,AU
l2377,"Ruswarp, Yorkshire",54.471,-0.63,GB
l2378,"Ruswarp,  Yorks.",54.471,-0.63,GB
l2379,Russian Imperial Army,54.636,21.811,RU
l238,"Whitebridge, UK",57.205,-4.507,GB
l2380,Russia,61.524,105.319,RU
l2381,"Russell, Manitoba",50.78,-101.285,CA
l2382,Rusack’s Hotel,56.342,-2.804,GB
l2383,Rural District,54.002,-1.444,GB
l2384,Runcorn,53.342,-2.73,GB
l2385,Rumgally,56.319,-2.965,GB
l2386,Rugby School,52.37,-1.262,GB
l2387,Rugby,52.371,-1.265,GB
l2388,Ruchlaw,55.962,-2.617,GB
l2389,"Royal Victoria Hospital, Montreal",45.473,-73.601,CA
l239,"White River, Mpumalanga, South Africa",-25.33,31.016,ZA
l2390,"Royal Veterinary College, London",51.537,-0.134,GB
l2391,Royal University of Ireland,53.339,-6.262,IE
l2392,Royal Technical College Glasgow,55.862,-4.242,GB
l2393,Royal South London dispensary,51.497,-0.108,GB
l2394,Royal Society of Portrait Painters,51.506,-0.131,GB
l2395,Royal Society of Arts,51.509,-0.123,GB
l2396,Royal Society,51.506,-0.132,GB
l2397,Royal Scottish Medical Society,55.946,-3.188,GB
l2398,Royal Scottish Academy,55.952,-3.196,GB
l2399,"Royal School, Manchester",53.361,-2.214,GB
l24,"York Road, London",51.503,-0.116,GB
l240,White River,50.338,-4.795,GB
l2400,"Royal School, Dunkeld",56.562,-3.583,GB
l2401,"Royal School of Mines, London",51.499,-0.175,GB
l2402,Royal School of Mines,51.5,-0.176,GB
l2403,"Royal School of Medicine, Manchester",53.464,-2.231,GB
l2404,"Royal Portsmouth, Portsea and Gosport hospital",50.809,-1.076,GB
l2405,"Royal Portsmouth, Portsea",50.796,-1.093,GB
l2406,Royal Portsmouth hospital,50.788,-1.124,GB
l2407,"Royal Physical Society, Edinburgh",55.953,-3.197,GB
l2408,"Royal Navy hospital, Plymouth",50.416,-4.114,GB
l2409,Royal Navy hospital at Port Royal,55.855,-4.318,GB
l241,"Whitchurch, Shropshire",52.969,-2.682,GB
l2410,Royal Navy,54.715,-3.502,GB
l2411,"Royal Naval hospital, Stonehouse",50.37,-4.156,GB
l2412,"Royal Naval Hospital, Plymouth",50.417,-4.114,GB
l2413,"Royal Naval hospital, Plymouth",50.417,-4.114,GB
l2414,Royal Naval hospital Deal,55.855,-4.318,GB
l2415,Royal Military Hospital,53.343,-6.3,IE
l2416,"Royal Military College, Sandhurst",51.34,-0.768,GB
l2417,"Royal Military College, Great Marlow",51.591,-0.801,GB
l2418,Royal Military College,51.34,-0.768,GB
l2419,"Royal Military Academy, Woolwich",51.476,0.059,GB
l242,"Whitchurch, Salop.",52.969,-2.682,GB
l2420,Royal Microscopical Society,51.75,-1.242,GB
l2421,Royal Medical Society,55.946,-3.188,GB
l2422,"Royal Marine Infirmary, Plymouth",50.367,-4.16,GB
l2423,Royal Mail Service,55.624,-3.524,GB
l2424,Royal lunatic asylum,55.882,-4.317,GB
l2425,"Royal Institution, London",51.51,-0.142,GB
l2426,"Royal Infirmary, Manchester",53.463,-2.227,GB
l2427,"Royal Infirmary, Haslar",55.922,-3.135,GB
l2428,"Royal Infirmary, Glasgow",55.863,-4.236,GB
l2429,"Royal Infirmary, Edinburgh",55.922,-3.135,GB
l243,"Whitchurch, Hereford",51.849,-2.652,GB
l2430,Royal Infirmary,55.922,-3.135,GB
l2431,"Royal Indian Engineering College, Cooper’s Hill",51.439,-0.57,GB
l2432,"Royal India Asylum, Ealing",51.513,-0.304,GB
l2433,Royal Household at Balmoral,57.04,-3.229,GB
l2434,"Royal Hospital, Reading",51.449,-0.957,GB
l2435,"Royal Hospital, Greenwich",51.477,-0.005,GB
l2436,"Royal Hospital, Chelsea",51.488,-0.158,GB
l2437,Royal Hospital Kilmauhuan,53.343,-6.3,IE
l2438,Royal hospital for diseases of the chest,51.532,-0.05,GB
l2439,"Royal High School, Edinburgh",55.964,-3.285,GB
l244,"Whitchurch, Hampshire",51.23,-1.335,GB
l2440,Royal gunpowder factory,51.69,-0.011,GB
l2441,Royal Glasgow Volunteers,55.768,-4.177,GB
l2442,Royal George,54.64,-3.54,GB
l2443,Royal Geological Society,51.509,-0.139,GB
l2444,Royal Geographical Society,51.502,-0.175,GB
l2445,"Royal Free Hospital, London",51.553,-0.166,GB
l2446,"Royal Free hospital, London",51.553,-0.166,GB
l2447,Royal Free and Cancer hospitals,51.553,-0.166,GB
l2448,"Royal Eye and Ear Hospital, Bradford",53.807,-1.796,GB
l2449,Royal Edinburgh Asylum,55.927,-3.214,GB
l245,"Whitchurch,  Hants.",51.23,-1.335,GB
l2450,"Royal Dispensary, Edinburgh",55.946,-3.19,GB
l2451,"Royal Dispensary, Aldersgate, London",51.497,-0.108,GB
l2452,"Royal College of Surgeons, London",51.515,-0.116,GB
l2453,"Royal College of Surgeons, Ireland",53.339,-6.262,IE
l2454,"Royal College of Surgeons, Edinburgh",55.947,-3.185,GB
l2455,"Royal College of Surgeons, Dublin",53.339,-6.262,IE
l2456,"Royal College of Surgeons, [Dublin]",53.339,-6.262,IE
l2457,Royal College of Surgeons of Ireland,53.339,-6.262,IE
l2458,Royal College of Surgeons of Edinburgh,55.947,-3.185,GB
l2459,Royal College of Surgeons Dublin,53.339,-6.262,IE
l246,"Whitchurch Lunatic Asylum, Hereford",51.849,-2.652,GB
l2460,Royal College of Surgeons,55.947,-3.185,GB
l2461,"Royal College of Surgeon, Dublin",53.339,-6.262,IE
l2462,"Royal College of Science, London",51.499,-0.175,GB
l2463,"Royal College of science, Dublin",53.339,-6.262,IE
l2464,Royal College of Science,51.499,-0.175,GB
l2465,Royal College of Physicians of London,51.526,-0.145,GB
l2466,Royal College of Physicians of Ireland,53.341,-6.255,IE
l2467,Royal College of Physicians of Edinburgh,55.955,-3.197,GB
l2468,Royal College of Physicians and Surgeons of Glasgow,55.862,-4.263,GB
l2469,"Royal College of Physicians & Surgeons, Kingston",55.862,-4.263,GB
l247,Whitchurch,52.969,-2.682,GB
l2470,Royal College of Chemistry,52.236,0.141,GB
l2471,Royal Coll. Of Science,51.499,-0.175,GB
l2472,Royal Chelsea hospital,51.488,-0.158,GB
l2473,Royal Caledonian Curling Club,56.119,-3.909,GB
l2474,"Royal Botanic Garden, Edinburgh",55.965,-3.209,GB
l2475,Royal Belgian Natural History Museum,50.837,4.377,BE
l2476,"Royal Bank, Cupar",56.319,-3.011,GB
l2477,"Royal Bank of Scotland, Arbroath",56.559,-2.584,GB
l2478,Royal Artillery,55.879,-4.324,GB
l2479,Royal Army Service Corps,51.311,-0.702,GB
l248,"Whitby, Yorkshire",54.486,-0.613,GB
l2480,Royal Army Medical Service,50.414,-4.121,GB
l2481,Royal Army Medical Corps,50.414,-4.121,GB
l2482,Royal and Ancient Golf Club,56.344,-2.802,GB
l2483,Royal Albert Hospital,53.558,-2.629,GB
l2484,Royal Academy of Music,51.523,-0.152,GB
l2485,Royal Academy,51.509,-0.14,GB
l2486,"Royal Academic Institution, Belfast",54.597,-5.937,GB
l2487,Roxbury,42.315,-71.091,US
l2488,Roxburgh,55.568,-2.476,GB
l2489,Rousay,59.15,-3.02,GB
l249,"Whitby, Ontario",43.898,-78.943,CA
l2490,"Roturua, New Zealand",-38.137,176.25,NZ
l2491,"Roturua, N.Z.",-38.137,176.25,NZ
l2492,"Rotunda hospital, Dublin",53.353,-6.263,IE
l2493,Rotunda hospital,53.353,-6.263,IE
l2494,"Rottingdean, Sussex",50.812,-0.054,GB
l2495,Rotterdam,51.924,4.478,NL
l2496,"Rothwell, Northamptonshire",52.423,-0.803,GB
l2497,Rothiemurchus,57.176,-3.817,GB
l2498,Rothiemay,57.524,-2.754,GB
l2499,Rothesay West,55.836,-5.056,GB
l25,"York Rd., London",51.503,-0.116,GB
l250,Whitby,54.486,-0.613,GB
l2500,Rothesay New Church,55.836,-5.053,GB
l2501,Rothesay Gaelic Chapel,55.829,-5.057,GB
l2502,Rothesay Gaelic,55.836,-5.056,GB
l2503,Rothesay Academy,55.825,-5.057,GB
l2504,Rothesay,55.836,-5.056,GB
l2505,"Rothes, Morayshire",57.528,-3.207,GB
l2506,"Rothes, Markinch",57.528,-3.207,GB
l2507,Rothes school house,57.53,-3.202,GB
l2508,Rothes,57.528,-3.207,GB
l2509,Rothersthorpe,52.206,-0.958,GB
l251,Whitburn,55.868,-3.683,GB
l2510,Rotherhithe,51.498,-0.046,GB
l2511,Rotherham Theological College,53.419,-1.35,GB
l2512,Rotherham,53.433,-1.364,GB
l2513,Rothbury,55.31,-1.91,GB
l2514,Rostock University,54.076,12.104,DE
l2515,"Rosskeen, Invergordon",57.696,-4.211,GB
l2516,Rossie,56.672,-2.55,GB
l2517,"Rossend, Burntisland",56.059,-3.245,GB
l2518,"Ross, Herefordshire",51.914,-2.582,GB
l2519,"Ross, Hereford",51.914,-2.582,GB
l252,Whetsone,51.624,-0.173,GB
l2520,Ross-shire,55.975,-3.962,GB
l2521,Ross shire,55.975,-3.962,GB
l2522,"Ross Dispensary, Herefordshire",51.912,-2.583,GB
l2523,Ross and Cromarty,57.577,-4.457,GB
l2524,Ross,55.678,-3.766,GB
l2525,"Roslyn, Dunedin, New Zealand",-45.867,170.491,NZ
l2526,Roslin,55.856,-3.164,GB
l2527,Rosewell,55.851,-3.136,GB
l2528,"Rosewastes, St Columb Major, Cornwall",50.432,-4.942,GB
l2529,Roseneath,53.173,-3.08,GB
l253,"Wheaton, Chicago",41.866,-88.107,US
l2530,"Rosehill, Lanarkshire",55.641,-3.829,GB
l2531,"Rosehall, Newington",55.936,-3.17,GB
l2532,Rosebery,51.328,-0.277,GB
l2533,"Rosebank School, Dundee",56.467,-2.975,GB
l2534,"Roseau, Dominica",15.309,-61.379,DM
l2535,"Rose’s Academical Institution, Nairn",57.586,-3.868,GB
l2536,"Rose Lane, Radcliffe",53.565,-2.315,GB
l2537,"Roscrea, Tipperary",52.955,-7.798,IE
l2538,"Roscrea, County Tipperary",52.955,-7.798,IE
l2539,"Roscrea, Co. Tipperary",52.955,-7.798,IE
l254,"Wheatley, Oxfordshire",51.746,-1.13,GB
l2540,Rosario de Santa Fe,-32.944,-60.651,AR
l2541,Rookwood Cemetery and Gaol,-33.874,151.047,AU
l2542,"Rondebosch, South Afrifa",-33.966,18.481,ZA
l2543,Rondebosch,-33.966,18.481,ZA
l2544,"Romsey, Hants.",50.989,-1.497,GB
l2545,"Romsey, Hampshire",50.989,-1.497,GB
l2546,"Romsey,  Hants.",50.989,-1.497,GB
l2547,Romsey,50.989,-1.497,GB
l2548,"Romsery, Hampshire",50.989,-1.497,GB
l2549,"Rome, Italy",41.903,12.496,IT
l255,Whatfield,52.081,0.957,GB
l2550,Rome,41.903,12.496,IT
l2551,"Roman Catholic Church, Ilkeston",52.967,-1.306,GB
l2552,Rogart,58.005,-4.14,GB
l2553,"Rodwell, Weymouth",50.606,-2.462,GB
l2554,"Rodney Street, Liverpool",53.402,-2.973,GB
l2555,"Rodney St., Liverpool",53.402,-2.973,GB
l2556,Rodborough Common,51.735,-2.216,GB
l2557,"Rockville, Nassau County, New York, U.S.A.",40.65,-73.641,US
l2558,"Rockville, Nassau Co., New York, U.S.A.",40.66,-73.65,US
l2559,Rockville,39.084,-77.153,US
l256,Whately,52.061,-1.34,GB
l2560,"Rockingham, Northants.",52.517,-0.723,GB
l2561,"Rockingham, Northamptonshire",52.517,-0.723,GB
l2562,"Rockferry, Birkenhead",53.374,-3.008,GB
l2563,Rockferry,53.374,-3.008,GB
l2564,"Rock Ferry, Birkenhead",53.374,-3.008,GB
l2565,"Rochford, Essex",51.582,0.707,GB
l2566,Rochford,51.575,0.83,GB
l2567,"Rochester, Kent",51.388,0.507,GB
l2568,Rochester,51.388,0.507,GB
l2569,"Rochdale, Lancs.",53.61,-2.156,GB
l257,Whalton,55.127,-1.794,GB
l2570,"Rochdale, Lancashire",53.61,-2.156,GB
l2571,Rochdale,53.61,-2.156,GB
l2572,"Robertson, Cape Province",-33.802,19.888,ZA
l2573,Robertson Memorial Edinburgh,55.913,-3.162,GB
l2574,"Robertson Memorial Church, Edinburgh",55.913,-3.162,GB
l2575,Robertson,56.131,-3.961,GB
l2576,"Roberton, Selkirk Presbytery",55.551,-2.839,GB
l2577,"Roberton Mains, Dolphinton",55.711,-3.439,GB
l2578,Roberton (Selkirk Presb.),55.551,-2.839,GB
l2579,Roberton,55.42,-2.9,GB
l258,Whalsey,60.352,-0.982,GB
l2580,"Robert Gordon’s, Aberdeen",57.149,-2.102,GB
l2581,"Robert Gordon’s College, Aberdeen",57.149,-2.102,GB
l2582,Robert Craig & Sons Ltd,54.51,-6.087,GB
l2583,"Riversdale, New Zealand",-45.901,168.742,NZ
l2584,"Rivers State, Nigeria",4.858,6.921,NG
l2585,"Riverhead hospital, St Johns",55.892,-3.524,GB
l2586,"River Hinnisdal, Isle of Skye",57.534,-6.318,GB
l2587,"Risley, Warrington",53.426,-2.523,GB
l2588,Rires,55.093,-3.58,GB
l2589,Ripon diocese,53.797,-1.553,GB
l259,Whalsay,60.352,-0.982,GB
l2590,Ripon cathedral,54.135,-1.52,GB
l2591,Ripon,54.136,-1.524,GB
l2592,"Ripley, Derbyshire",53.053,-1.406,GB
l2593,"Rio Tinto, Spain",37.457,-6.728,ES
l2594,Rio Tinto,51.508,-0.135,GB
l2595,Rio de Janeiro,-22.907,-43.173,BR
l2596,"Ringwood, Hants.",50.845,-1.789,GB
l2597,"Ringwood, Hants",50.845,-1.789,GB
l2598,"Ringwood, Hampshire",50.845,-1.789,GB
l2599,Ringwood,50.845,-1.789,GB
l26,York Post Office,53.96,-1.085,GB
l260,Weymouth & Dorset County Royal Eye Infirmary,50.712,-2.445,GB
l2600,"Rigg, Gretna",54.995,-3.067,GB
l2601,"Rickmansworth, Hertfordshire",51.639,-0.474,GB
l2602,"Rickmansworth,  Herts.",51.639,-0.474,GB
l2603,Rickmansworth,51.639,-0.474,GB
l2604,"Richmond, Yorkshire",54.403,-1.733,GB
l2605,"Richmond, Surrey",51.461,-0.304,GB
l2606,Richmond Urban district,51.461,-0.304,GB
l2607,Richmond School of Medicine,37.54,-77.43,US
l2608,"Richmond Place, Edinburgh",55.946,-3.183,GB
l2609,"Richmond Pl., Edinburgh",55.946,-3.183,GB
l261,Weymouth & Dorset Co. Royal Eye Infirmary,50.712,-2.445,GB
l2610,"Richmond hospital, Dublin",53.351,-6.276,IE
l2611,Richmond hospital,54.405,-1.738,GB
l2612,Richmond Hospital,54.405,-1.738,GB
l2613,"Richmond Hill Congregational Church, Bournemouth",50.722,-1.88,GB
l2614,Richmond Golf Club,51.44,-0.297,GB
l2615,"Richmond Congregational Church, Edinburgh",55.946,-3.183,GB
l2616,Richmond College,51.451,-0.34,GB
l2617,Richmond,51.461,-0.304,GB
l2618,"Richard, Australia",-37.81,144.979,AU
l2619,Richard,52.504,13.435,DE
l262,Weymouth,50.614,-2.458,GB
l2620,"Riccarton, Jamaica",-43.531,172.598,NZ
l2621,"Riccarton, Ayrshire",55.593,-4.501,GB
l2622,Ricartoun,55.593,-4.501,GB
l2623,Rhynie,57.333,-2.835,GB
l2624,"Rhynd, UK",56.365,-3.366,GB
l2625,"Rhynd, Leuchars",56.404,-2.867,GB
l2626,Rhynd,56.365,-3.366,GB
l2627,Rhyl,53.319,-3.492,GB
l2628,Rhyddings,53.746,-2.391,GB
l2629,Rhu,56.013,-4.774,GB
l263,Weybridge,51.372,-0.458,GB
l2630,"Rhosmaen, Llandilo",51.886,-3.99,GB
l2631,Rhind,51.528,-0.105,GB
l2632,Rheims University,49.256,4.041,FR
l2633,Rheims,49.258,4.032,FR
l2634,"Revesby, Lincolnshire",53.134,-0.06,GB
l2635,"Reutlingen, Germany",48.507,9.204,DE
l2636,"Retford, Nottinghamshire",53.321,-0.946,GB
l2637,Reswallie,56.653,-2.815,GB
l2638,Resolven,51.71,-3.694,GB
l2639,Resolution,51.389,0.076,GB
l264,"Wexford, Ireland",52.337,-6.463,IE
l2640,Resolis,57.66,-4.226,GB
l2641,"Residency, Lucknow",26.861,80.927,IN
l2642,"Research Establishment, Woolwich",51.489,0.068,GB
l2643,"Rescobie, UK",56.659,-2.806,GB
l2644,Rescobie,56.659,-2.806,GB
l2645,Repton School,52.84,-1.553,GB
l2646,"Renwick, Cumbria",54.785,-2.628,GB
l2647,Renton,55.971,-4.585,GB
l2648,"Renshaw St., Liverpool",53.404,-2.977,GB
l2649,Rennyhill,56.235,-2.69,GB
l265,Wexford,52.337,-6.463,IE
l2650,Renfrewshire,55.847,-4.533,GB
l2651,"Renfrew Street, Glasgow",55.866,-4.261,GB
l2652,"Renfrew St., Glasgow",55.866,-4.261,GB
l2653,Renfrew Grammar School,55.871,-4.386,GB
l2654,Renfrew,55.875,-4.392,GB
l2655,"Renfield Street, Glasgow",55.863,-4.256,GB
l2656,"Reneshaw Street, Liverpool",53.404,-2.977,GB
l2657,"Rendlesham, Suffolk",52.125,1.412,GB
l2658,Rendell,52.778,-1.204,GB
l2659,Remeura,-36.879,174.812,NZ
l266,Wetheral,54.882,-2.833,GB
l2660,Relief Synod,51.374,-0.09,GB
l2661,"Relief Church, Greenend, Aberargie",56.328,-3.348,GB
l2662,Relief Church Newlands,55.822,-4.286,GB
l2663,Relief Church Newburgh,56.351,-3.241,GB
l2664,Relief church at Auchtergaven,56.501,-3.518,GB
l2665,Relief Church,55.619,-4.631,GB
l2666,Reigate,51.237,-0.206,GB
l2667,"Regents Place, Glasgow",55.864,-4.252,GB
l2668,Regents Park College,51.757,-1.261,GB
l2669,"Regent Square Church, London",51.513,-0.143,GB
l267,"Westwell, Sandwick Orkney",59.059,-3.283,GB
l2670,"Reformed Synagogue, London",51.629,-0.167,GB
l2671,"Reform Street, Dundee",56.461,-2.971,GB
l2672,"Reform St., Evangelical Union Church, Dundee",56.461,-2.971,GB
l2673,"Redruth, Cornwall",50.233,-5.227,GB
l2674,Redruth,50.233,-5.227,GB
l2675,Redland Bristol,51.474,-2.605,GB
l2676,Redland,51.473,-2.612,GB
l2677,Redhill,51.239,-0.17,GB
l2678,Redhall,55.921,-3.261,GB
l2679,Redgorton,56.443,-3.48,GB
l268,"Westview School, St Andrews",56.338,-2.797,GB
l2680,Redford,54.671,-1.89,GB
l2681,Redditch,52.309,-1.941,GB
l2682,Redcastle,55.159,-7.134,IE
l2683,Redcar,54.597,-1.078,GB
l2684,Red Sea,20.28,38.513,SA
l2685,"Red Lion St., Boston",52.98,-0.025,GB
l2686,"Red Cross Auxiliary hospital, Dundee",56.462,-2.971,GB
l2687,Reay,58.559,-3.777,GB
l2688,Reading,51.454,-0.978,GB
l2689,Rayne,51.877,0.513,GB
l269,Westruther,55.742,-2.586,GB
l2690,"Rayleigh, Essex",51.586,0.605,GB
l2691,"Rawyards, Lanark",55.876,-3.961,GB
l2692,Rawtonstall,53.742,-2.032,GB
l2693,Rawtenstall,53.7,-2.301,GB
l2694,Rawdon College,53.857,-1.688,GB
l2695,Rawcliffe by Goole,53.7,-0.965,GB
l2696,Ravenstone Hospital,52.146,-0.759,GB
l2697,Ravenstone,52.146,-0.759,GB
l2698,"Ravenscourt Park, West London",51.495,-0.24,GB
l2699,Ravelston,55.954,-3.244,GB
l27,York Medical School,53.95,-1.051,GB
l270,"Westray, Orkney",59.294,-2.98,GB
l2700,Rattray,57.597,-1.858,GB
l2701,Rathven,57.677,-2.936,GB
l2702,Ratho Byres,55.928,-3.368,GB
l2703,Ratho,55.922,-3.384,GB
l2704,Rathmines,53.322,-6.266,IE
l2705,"Rathkeale, County Limerick",52.524,-8.937,IE
l2706,"Rathkeale, Co. Limerick",52.524,-8.937,IE
l2707,Rathillet,56.377,-3.031,GB
l2708,"Rathgar, County Dublin",53.319,-6.269,IE
l2709,"Rathgar, Co. Dublin",53.319,-6.269,IE
l271,Westray,59.294,-2.98,GB
l2710,"Rathen, Aberdeenshire",57.633,-2.002,GB
l2711,Rathdown fever hospital,53.26,-6.205,IE
l2712,Rarotongo,-21.229,-159.776,CK
l2713,Raphoe,54.874,-7.599,IE
l2714,"Rapallo, Italy",44.35,9.234,IT
l2715,"Rapallo, Italian Riviera",44.35,9.234,IT
l2716,"Rannoch, UK",56.686,-4.577,GB
l2717,Rannoch,56.698,-4.228,GB
l2718,Rangoon,16.866,96.195,MM
l2719,"Ranelagh Presbyterian Chapel, Chelsea",51.487,-0.154,GB
l272,Weston-super-mare,51.347,-2.977,GB
l2720,Randerston,56.288,-2.642,GB
l2721,Randalstown,54.75,-6.32,GB
l2722,"Ramshorn, parish of Clackmannan",56.108,-3.753,GB
l2723,Ramsgate,51.336,1.42,GB
l2724,"Ramsey, Isle of Man",54.324,-4.392,IM
l2725,"Ramsey, I.o.M.",54.324,-4.392,IM
l2726,"Ramsbury, Wiltshire",51.448,-1.596,GB
l2727,"Ramsbury, Wilts.",51.448,-1.596,GB
l2728,"Ramsbottom, Manchester",53.648,-2.32,GB
l2729,"Ramsay, Canada",51.036,-114.042,CA
l273,Weston super Mare,51.347,-2.977,GB
l2730,"Rameldrie Mill, Kettle",56.246,-3.09,GB
l2731,Rama Township,44.6,-79.204,CA
l2732,"Rakhine State, Myanmar",19.81,93.988,MM
l2733,Rajputana,51.669,-4.038,GB
l2734,"Rajasthan, India",27.024,74.218,IN
l2735,Raith,56.1,-3.168,GB
l2736,"Rait, Kilspindie",56.419,-3.263,GB
l2737,Rainhill County asylum,53.416,-2.765,GB
l2738,Rainham,51.518,0.195,GB
l2739,"Ragged School, Haddington",55.959,-2.775,GB
l274,"Weston in Gordano, Somerset",51.465,-2.799,GB
l2740,Rafford,57.587,-3.572,GB
l2741,"Radstock, Somerset",51.292,-2.446,GB
l2742,"Radstock, Bath",51.292,-2.446,GB
l2743,Radnor,51.442,-0.331,GB
l2744,"Radlett, Herts.",51.687,-0.317,GB
l2745,"Radlett, Hertfordshire",51.687,-0.317,GB
l2746,Radlett,51.687,-0.317,GB
l2747,Radernie,56.279,-2.863,GB
l2748,"Radcliffe, Manchester",53.561,-2.327,GB
l2749,Radcliffe on Trent,52.943,-1.034,GB
l275,Weston by Weedon,52.117,-1.134,GB
l2750,Radcliffe,53.561,-2.327,GB
l2751,R.U.I.,51.387,-2.352,GB
l2752,R.S.W.,55.863,-4.257,GB
l2753,"R.C.S.I., Dublin",53.339,-6.262,IE
l2754,R.C.S.I.,53.339,-6.262,IE
l2755,R.C.S.I,53.339,-6.262,IE
l2756,R.C.S.Eng.,51.515,-0.116,GB
l2757,R.C.S.E.,42.456,14.225,IT
l2758,R.C.S.Dublin,53.339,-6.262,IE
l2759,"R.C.S., Dublin",53.339,-6.262,IE
l276,"Westmoreland, Jamaica",18.294,-78.156,JM
l2760,R.C.S. Edinburgh,55.947,-3.185,GB
l2761,R.C.S. Dublin,53.339,-6.262,IE
l2762,R.C.P.S.G.,55.862,-4.263,GB
l2763,R.C.P.S. Kingston,51.412,-0.301,GB
l2764,R.C.P.L.,51.526,-0.145,GB
l2765,R.C.P.I.,53.341,-6.255,IE
l2766,R.C.P.Eng.,51.526,-0.145,GB
l2767,R.C.P.E.,55.955,-3.197,GB
l2768,R.A.S.C.,47.36,7.978,CH
l2769,R.A.M.C.,50.636,5.886,BE
l277,Westmoreland,42.962,-72.442,US
l2770,"R. N. hospital, Plymouth",50.37,-4.156,GB
l2771,R. & A.,56.344,-2.802,GB
l2772,"Quorndon, Lancashire",53.763,-2.704,GB
l2773,Quito University,-0.197,-78.436,EC
l2774,Quilnes,-34.721,-58.255,AR
l2775,"Queenstown, County Cork",51.85,-8.294,IE
l2776,"Queenstown, Co. Cork",51.85,-8.294,IE
l2777,Queenstown,-45.031,168.663,NZ
l2778,Queensland Emigration Service,-27.47,153.03,AU
l2779,Queensland,-20.918,142.703,AU
l278,"Westminster, London",51.497,-0.136,GB
l2780,Queensferry,55.99,-3.399,GB
l2781,Queenscliffe,-38.255,144.673,AU
l2782,"Queensbury, Yorkshire",53.77,-1.843,GB
l2783,Queensberry House,55.338,-3.448,GB
l2784,"Queens University, Kingston",44.225,-76.495,CA
l2785,"Queens Road, Coventry",52.405,-1.52,GB
l2786,"Queens College, Glasgow",55.896,-4.403,GB
l2787,"Queens College, Galway",53.277,-9.061,IE
l2788,"Queens College, Cambridge",52.202,0.114,GB
l2789,"Queens College, Birmingham",52.458,-1.931,GB
l279,Westminster School,51.498,-0.128,GB
l2790,"Queens College, Belfast",54.584,-5.934,GB
l2791,"Queens Coll., Birmingham",52.458,-1.931,GB
l2792,"Queens Cliff, Victoria",-38.268,144.629,AU
l2793,"Queenborough, Kent",51.417,0.747,GB
l2794,Queen’s University,54.584,-5.934,GB
l2795,"Queen’s Terrace, Middlesbrough, Yorkshire",54.589,-1.232,GB
l2796,"Queen’s hospital, Birmingham",52.451,-1.943,GB
l2797,"Queen’s hospital and college, Birmingham",52.473,-1.91,GB
l2798,"Queen’s College, Ontario",44.225,-76.495,CA
l2799,"Queen’s College, Kingston, Canada",44.225,-76.495,CA
l28,"York Lunatic asylum, Bootham",53.964,-1.088,GB
l280,Westminster Review,51.488,-0.144,GB
l2800,"Queen’s College, Kingston",44.225,-76.495,CA
l2801,"Queen’s College, Cork",51.892,-8.493,IE
l2802,"Queen’s College, Canada",44.225,-76.495,CA
l2803,"Queen’s College, Birmingham",52.458,-1.931,GB
l2804,"Queen’s College, Belfast",54.584,-5.934,GB
l2805,"Queen’s College and hospital, Birmingham",52.451,-1.943,GB
l2806,Queen’s College,51.753,-1.251,GB
l2807,"Queen's College, Birmingham",52.458,-1.931,GB
l2808,"Queen Street United Presbyterian and United Free Church, Broughty Ferry, Dundee",56.467,-2.871,GB
l2809,"Queen Street U.P.  and United Free Church, Broughty Ferry",56.469,-2.884,GB
l281,Westminster New Lying in hospital,51.502,-0.117,GB
l2810,"Queen St., Sheffield",53.384,-1.47,GB
l2811,Queen St. Melbourne,-37.813,144.96,AU
l2812,"Queen St, Wolverhampton",52.586,-2.124,GB
l2813,"Queen Margaret College, Glasgow",55.874,-4.291,GB
l2814,Quebec library,45.515,-73.562,CA
l2815,Quebec Gazette,51.515,-0.159,GB
l2816,Quebec,52.94,-73.549,CA
l2817,"Quatre Bras, France",50.197,4.536,BE
l2818,"Quarndon, Derbyshire",52.966,-1.503,GB
l2819,"Quariff, Shetland",60.104,-1.225,GB
l282,Westminster hospital,51.484,-0.181,GB
l2820,"Quarantine, Standgate Creek",51.416,0.693,GB
l2821,"Quadring, Lincs.",52.882,-0.182,GB
l2822,"Quadring, Lincolnshire",52.882,-0.182,GB
l2823,"Pyrmont, Sydney, New South Wales]",-33.874,151.196,AU
l2824,"Pyrmont, Sydney,  N.S.W.",-33.874,151.196,AU
l2825,"Pye Lane, Peckham, London",51.474,-0.069,GB
l2826,"Pwllheli, UK",52.889,-4.418,GB
l2827,"Pwllheli, North Wales",52.889,-4.418,GB
l2828,Pwllheli,52.889,-4.418,GB
l2829,"Putney, Surrey",51.406,-0.284,GB
l283,"Westminster College, London",51.521,-0.175,GB
l2830,"Putney, London",51.461,-0.217,GB
l2831,Putney,51.461,-0.217,GB
l2832,"pupil teacher centre, Stoke on Trent",53.003,-2.179,GB
l2833,"pupil teacher centre, Farnham",51.214,-0.799,GB
l2834,"Punjab, India",31.147,75.341,IN
l2835,Punjab,31.147,75.341,IN
l2836,"Pune, India",18.52,73.857,IN
l2837,Pune,18.52,73.857,IN
l2838,Pultneytown,58.438,-3.089,GB
l2839,Pulteneytown,58.438,-3.089,GB
l284,"Westminster Church, Winnipeg",49.882,-97.161,CA
l2840,"Pulborough, Sussex",50.957,-0.511,GB
l2841,Pukekohe,-37.202,174.904,NZ
l2842,Puerto Rico,18.221,-66.59,PR
l2843,"Puddleton, Dorset",50.749,-2.348,GB
l2844,Puckeridge,51.89,0.015,GB
l2845,"Public Works Department, India",21.149,79.061,IN
l2846,Public Works Department in India,22.596,88.377,IN
l2847,"Public School, Craigo",56.77,-2.511,GB
l2848,Public Record Office,54.604,-5.911,GB
l2849,public High School in Quebec,48.27,4.078,FR
l285,Westminster Abbey,51.499,-0.127,GB
l2850,Prudential Insurance Company,50.826,-0.311,GB
l2851,"Provost Wynd Relief Church, Cupar",56.317,-3.015,GB
l2852,Province of Gujerat,22.303,70.895,IN
l2853,Providence,41.824,-71.413,US
l2854,"Protestant School of Medicine, Dublin",53.309,-6.226,IE
l2855,"proprietary school, Hexham",54.973,-2.112,GB
l2856,Privy council,51.502,-0.129,GB
l2857,"Private School, Dalbeattie",54.93,-3.83,GB
l2858,Prison Service,55.983,-3.727,GB
l2859,Priorletham,56.304,-2.815,GB
l286,Westminster,51.5,-0.133,GB
l2860,"Prinlaws, Leslie",56.198,-3.222,GB
l2861,Prinlaws,56.198,-3.222,GB
l2862,principal practitioner,42.646,-8.882,ES
l2863,Princeton University,40.344,-74.651,US
l2864,"Princeton College, New Jersey",40.344,-74.651,US
l2865,Princeton,40.357,-74.667,US
l2866,"Princes Street School, Dundee",56.463,-2.973,GB
l2867,Prince of Wales Island,55.779,-132.818,US
l2868,"Prince Frederick Church, South Carolina",33.506,-79.18,US
l2869,Prince Edward Island,46.511,-63.417,CA
l287,"Westmill, Hertfordshire, UK",51.925,-0.015,GB
l2870,"Pretoria, Transvaal",-25.748,28.229,ZA
l2871,"Pretoria, South Africa",-25.748,28.229,ZA
l2872,Pretoria,-25.748,28.229,ZA
l2873,Prestwick,55.496,-4.614,GB
l2874,"Prestwich, Manchester",53.527,-2.281,GB
l2875,Prestwich,53.527,-2.281,GB
l2876,Prestonpans,55.96,-2.984,GB
l2877,Prestonkirk,55.991,-2.655,GB
l2878,"Prestonhall, Cupar",56.326,-2.987,GB
l2879,Prestonhall,55.883,-2.96,GB
l288,"Westmeon, Petersfield, Hampshire",51.014,-1.086,GB
l2880,"Prestonfield, Edinburgh",55.933,-3.16,GB
l2881,"Preston, Lancashire",53.763,-2.703,GB
l2882,Preston Presbyterian Church,53.814,-2.532,GB
l2883,Preston,53.763,-2.703,GB
l2884,Prestatyn,53.337,-3.408,GB
l2885,"Presidency College, Calcutta",22.577,88.364,IN
l2886,"Prescott, Lancashire",53.429,-2.805,GB
l2887,Prescott,51.957,-2.013,GB
l2888,"Prescot, Lancashire",53.429,-2.805,GB
l2889,Presbytery of Toronto,43.687,-79.349,CA
l289,"Westley, Suffolk",52.248,0.661,GB
l2890,presbytery of Sydney,-33.88,151.189,AU
l2891,presbytery of Paisley,55.867,-4.617,GB
l2892,presbytery of London,51.522,-0.091,GB
l2893,presbytery of Hamilton,55.794,-4.058,GB
l2894,presbytery of Glasgow,55.865,-4.268,GB
l2895,presbytery of Brechin,56.643,-2.891,GB
l2896,"Presbyterian Theological College, London",54.947,-1.634,GB
l2897,Presbyterian congregation Uxbridge,44.107,-79.123,CA
l2898,"Presbyterian congregation Etal, Northumberland",55.649,-2.114,GB
l2899,"Presbyterian College, London",51.516,-0.06,GB
l29,York County hospital,53.97,-1.084,GB
l290,"Westley, Cambs.",52.183,0.353,GB
l2900,"Presbyterian Church, Wark, Northumberland",54.941,-1.637,GB
l2901,"Presbyterian Church, Rockhampton",-23.38,150.511,AU
l2902,"Presbyterian Church, North Shields",55.01,-1.445,GB
l2903,"Presbyterian Church, Newcastle, New Brunswick",47.004,-65.568,CA
l2904,"Presbyterian Church, Morwell, Victoria",-38.235,146.4,AU
l2905,"Presbyterian Church, Lowick, Berwick on Tweed",55.772,-2.002,GB
l2906,"Presbyterian Church, Fitzroy, Melbourne",-37.815,144.969,AU
l2907,"Presbyterian Church, East Tawas, Iosco County, Michigan",44.295,-83.438,US
l2908,"Presbyterian Church, Durham",54.776,-1.589,GB
l2909,"Presbyterian Church, Alnwick",55.415,-1.71,GB
l291,"Westley, Cambridgeshire",52.183,0.353,GB
l2910,Presbyterian Church Port Adelaide,53.332,-6.259,IE
l2911,Presbyterian Church of Victoria,-37.815,144.969,AU
l2912,"Presbyterian Church of New Zealand, Opotike on Bay of Plenty",-38.149,176.254,NZ
l2913,Presbyterian Church of New Zealand,54.584,-5.911,GB
l2914,Presbyterian Church of New South Wales,-33.347,151.494,AU
l2915,"Presbyterian Church of England, Highgate, London",51.535,-0.205,GB
l2916,"Presbyterian Church of England, Bow Road, London",51.517,-0.097,GB
l2917,"Presbyterian Church of England, Berwick",55.772,-2.002,GB
l2918,"Presbyterian Church of England Spittal, Berwick",55.772,-2.002,GB
l2919,"Presbyterian Church of England Kyloe, Northumberland",55.7,-1.998,GB
l292,"Westhoughton, Lancaster",53.557,-2.536,GB
l2920,Presbyterian Church of England Jersey,54.776,-1.589,GB
l2921,Presbyterian church of England,54.941,-1.637,GB
l2922,Presbyterian Church of Australia,55.87,-3.984,GB
l2923,Presbyterian Church New South Wales,-33.347,151.494,AU
l2924,Presbyterian Church N.S.W.,-33.347,151.494,AU
l2925,Presbyterian church Leicester,52.628,-1.124,GB
l2926,Presbyterian Church Greenwich,51.485,0.005,GB
l2927,Presbyterian Church Dunedin,-45.867,170.507,NZ
l2928,"Presbyterian church Donald, Victoria",-36.372,142.984,AU
l2929,Presbyterian Church,55.869,-4.275,GB
l293,Westhoughton,53.549,-2.526,GB
l2930,Presbyterian chapel Stafford,55.954,-3.196,GB
l2931,Presbyterian Banner (South Australia),-30,136.209,AU
l2932,"Preparatory School, Belsize Square, Hampstead",51.546,-0.173,GB
l2933,Preparatory School in London,51.477,-0.202,GB
l2934,"Prenton, Birkenhead",53.371,-3.039,GB
l2935,"Pre-school and School Children’s Department, Dundee",56.472,-2.975,GB
l2936,Pratis,56.244,-2.998,GB
l2937,Prague University,50.087,14.423,CZ
l2938,Prague,50.076,14.438,CZ
l2939,Powrie,56.493,-2.943,GB
l294,Westhaven,51.324,-2.984,GB
l2940,"Poulton-le-Fylde, Lancashire",53.844,-2.986,GB
l2941,"Poulton-le-Fylde,  Lancs.",53.844,-2.986,GB
l2942,Poulton-le-Fyde,53.844,-2.986,GB
l2943,"Potters Bar, Middlesex",51.698,-0.192,GB
l2944,Potters Bar,51.697,-0.176,GB
l2945,"Postern Chapel, Newcastle",54.978,-1.618,GB
l2946,Possil,55.883,-4.255,GB
l2947,"Portumna, County Galway",53.093,-8.219,IE
l2948,"Portumna, Co. Galway",53.093,-8.219,IE
l2949,Portugal,39.4,-8.224,PT
l295,"Westgate, Newcastle",54.97,-1.614,GB
l2950,Portsoy,57.681,-2.688,GB
l2951,Portsmouth Mental hospital,50.794,-1.049,GB
l2952,Portsmouth Garrison,50.789,-1.104,GB
l2953,Portsmouth district,50.82,-1.088,GB
l2954,"Portsmouth Common, Hants.",50.783,-1.095,GB
l2955,"Portsmouth Common, Hampshire",50.782,-1.096,GB
l2956,Portsmouth,50.82,-1.088,GB
l2957,"Portsea, Hants.",50.809,-1.076,GB
l2958,"Portsea, Hampshire",50.809,-1.076,GB
l2959,Portsea,50.809,-1.076,GB
l296,Western Point,50.897,4.342,BE
l2960,"Portsburgh, Edinburgh",55.945,-3.2,GB
l2961,Portree High School,57.413,-6.203,GB
l2962,Portree,57.412,-6.196,GB
l2963,"Portpatrick, UK",54.843,-5.116,GB
l2964,Portpatrick,54.843,-5.116,GB
l2965,"Portobello, St Philips",55.95,-3.103,GB
l2966,Portobello,51.517,-0.206,GB
l2967,Porto,41.158,-8.629,PT
l2968,Portmoak parish,56.226,-3.42,GB
l2969,Portmoak,56.189,-3.322,GB
l297,Western Medical School,55.962,-3.232,GB
l2970,Portmadoc,52.928,-4.133,GB
l2971,"Portland, Dorset",50.548,-2.434,GB
l2972,Portland,45.512,-122.659,US
l2973,"Portarlington, Victoria",-38.117,144.65,AU
l2974,Port William (Relief) Church,54.76,-4.583,GB
l2975,Port William,54.76,-4.583,GB
l2976,"Port School, Arbroath",56.562,-2.584,GB
l2977,Port Royal,17.937,-76.841,JM
l2978,"Port of Spain, Trinidad",10.655,-61.502,TT
l2979,Port of Menteith,56.186,-4.281,GB
l298,Western Isles and the Highlands,58.442,-3.093,GB
l2980,Port of London Authority,51.445,0.374,GB
l2981,Port of London,51.51,-0.082,GB
l2982,"Port Levi, Canada",46.743,-71.277,CA
l2983,Port Leman,46.323,6.256,FR
l2984,Port Hope,43.949,-78.293,CA
l2985,Port Glasgow,55.932,-4.68,GB
l2986,"Port Elizabeth, South Africa",-33.961,25.602,ZA
l2987,"Port Bannatyne, Bute",55.86,-5.078,GB
l2988,"Port au Prince, Haiti",18.594,-72.307,HT
l2989,Port au Prince,18.594,-72.307,HT
l299,Western Infirmary,55.872,-4.294,GB
l2990,Port Adelaide,-34.846,138.503,AU
l2991,"Poonamallee, India",13.047,80.095,IN
l2992,Poona,18.52,73.857,IN
l2993,Poolewe,57.765,-5.605,GB
l2994,"Poole, Dorset",50.715,-1.987,GB
l2995,Poole,50.715,-1.987,GB
l2996,"Pontypool, Monmouthshire",51.7,-3.045,GB
l2997,Pontypool,51.7,-3.045,GB
l2998,Ponteland,55.05,-1.74,GB
l2999,"Pontefract, Yorkshire",53.692,-1.309,GB
